<?xml version="1.0" encoding="UTF-8"?>
<kml xmlns="http://www.opengis.net/kml/2.2" xmlns:gx="http://www.google.com/kml/ext/2.2" xmlns:kml="http://www.opengis.net/kml/2.2" xmlns:atom="http://www.w3.org/2005/Atom">
<Document>
	<name>NEXRAD Radar Sites</name>
	<LookAt>
		<longitude>-98.28345098636811</longitude>
		<latitude>39.47408385994242</latitude>
		<altitude>0</altitude>
		<range>7483433</range>
		<tilt>0</tilt>
		<heading>0</heading>
	</LookAt>
	<Schema parent="Placemark" id="khSchema540">
		<SimpleField type="wstring" name="SITE" id="khSimpleField541"></SimpleField>
		<SimpleField type="wstring" name="LAT" id="khSimpleField542"></SimpleField>
		<SimpleField type="wstring" name="LON" id="khSimpleField543"></SimpleField>
		<SimpleField type="wstring" name="ELEV" id="khSimpleField544"></SimpleField>
		<SimpleField type="wstring" name="LOCATION" id="khSimpleField545"></SimpleField>
		<SimpleField type="wstring" name="STATE" id="khSimpleField546"></SimpleField>
	</Schema>
	<Schema parent="Placemark">
		<SimpleField type="wstring" name="SITE"></SimpleField>
		<SimpleField type="wstring" name="LAT"></SimpleField>
		<SimpleField type="wstring" name="LON"></SimpleField>
		<SimpleField type="wstring" name="ELEV"></SimpleField>
		<SimpleField type="wstring" name="LOCATION"></SimpleField>
		<SimpleField type="wstring" name="STATE"></SimpleField>
	</Schema>
	<Schema parent="Placemark" name="wsr">
		<SimpleField type="wstring" name="SITE"></SimpleField>
		<SimpleField type="wstring" name="LAT"></SimpleField>
		<SimpleField type="wstring" name="LON"></SimpleField>
		<SimpleField type="wstring" name="ELEV"></SimpleField>
		<SimpleField type="wstring" name="LOCATION"></SimpleField>
		<SimpleField type="wstring" name="STATE"></SimpleField>
	</Schema>
	<Style id="sh_polygon1900">
		<IconStyle>
			<color>ff0f06ff</color>
			<scale>1.4</scale>
			<Icon>
				<href>http://maps.google.com/mapfiles/kml/shapes/polygon.png</href>
			</Icon>
		</IconStyle>
	</Style>
	<StyleMap id="msn_polygon25211142122123221131421121113311411111221221131">
		<Pair>
			<key>normal</key>
			<styleUrl>#sn_polygon2721</styleUrl>
		</Pair>
		<Pair>
			<key>highlight</key>
			<styleUrl>#sh_polygon22012</styleUrl>
		</Pair>
	</StyleMap>
	<Style id="sh_polygon220121">
		<IconStyle>
			<color>ff0f06ff</color>
			<scale>1.4</scale>
			<Icon>
				<href>http://maps.google.com/mapfiles/kml/shapes/polygon.png</href>
			</Icon>
		</IconStyle>
	</Style>
	<StyleMap id="msn_polygon232121213212111111121112221113111121311111111422112">
		<Pair>
			<key>normal</key>
			<styleUrl>#sn_polygon25</styleUrl>
		</Pair>
		<Pair>
			<key>highlight</key>
			<styleUrl>#sh_polygon180</styleUrl>
		</Pair>
	</StyleMap>
	<Style id="sn_polygon2600">
		<IconStyle>
			<color>ff0f06ff</color>
			<scale>1.2</scale>
			<Icon>
				<href>http://maps.google.com/mapfiles/kml/shapes/polygon.png</href>
			</Icon>
		</IconStyle>
	</Style>
	<Style id="sh_polygon1801">
		<IconStyle>
			<color>ff0f06ff</color>
			<scale>1.4</scale>
			<Icon>
				<href>http://maps.google.com/mapfiles/kml/shapes/polygon.png</href>
			</Icon>
		</IconStyle>
	</Style>
	<Style id="sn_polygon24011">
		<IconStyle>
			<color>ff0f06ff</color>
			<scale>1.2</scale>
			<Icon>
				<href>http://maps.google.com/mapfiles/kml/shapes/polygon.png</href>
			</Icon>
		</IconStyle>
	</Style>
	<Style id="sn_polygon2500">
		<IconStyle>
			<color>ff0f06ff</color>
			<scale>1.2</scale>
			<Icon>
				<href>http://maps.google.com/mapfiles/kml/shapes/polygon.png</href>
			</Icon>
		</IconStyle>
	</Style>
	<StyleMap id="msn_polygon241331252221211132221131241211121221121123132">
		<Pair>
			<key>normal</key>
			<styleUrl>#sn_polygon26</styleUrl>
		</Pair>
		<Pair>
			<key>highlight</key>
			<styleUrl>#sh_polygon1700</styleUrl>
		</Pair>
	</StyleMap>
	<StyleMap id="msn_polygon22012111312112213113122112121211112221212211411112111121">
		<Pair>
			<key>normal</key>
			<styleUrl>#sn_polygon2401</styleUrl>
		</Pair>
		<Pair>
			<key>highlight</key>
			<styleUrl>#sh_polygon2301</styleUrl>
		</Pair>
	</StyleMap>
	<StyleMap id="msn_polygon21025123112111331111311211332112331111111121211213">
		<Pair>
			<key>normal</key>
			<styleUrl>#sn_polygon190</styleUrl>
		</Pair>
		<Pair>
			<key>highlight</key>
			<styleUrl>#sh_polygon19</styleUrl>
		</Pair>
	</StyleMap>
	<Style id="sn_polygon1900">
		<IconStyle>
			<color>ff0f06ff</color>
			<scale>1.2</scale>
			<Icon>
				<href>http://maps.google.com/mapfiles/kml/shapes/polygon.png</href>
			</Icon>
		</IconStyle>
	</Style>
	<Style id="sn_polygon27210">
		<IconStyle>
			<color>ff0f06ff</color>
			<scale>1.2</scale>
			<Icon>
				<href>http://maps.google.com/mapfiles/kml/shapes/polygon.png</href>
			</Icon>
		</IconStyle>
	</Style>
	<Style id="sh_polygon23011">
		<IconStyle>
			<color>ff0f06ff</color>
			<scale>1.4</scale>
			<Icon>
				<href>http://maps.google.com/mapfiles/kml/shapes/polygon.png</href>
			</Icon>
		</IconStyle>
	</Style>
	<Style id="sh_polygon17000">
		<IconStyle>
			<color>ff0f06ff</color>
			<scale>1.4</scale>
			<Icon>
				<href>http://maps.google.com/mapfiles/kml/shapes/polygon.png</href>
			</Icon>
		</IconStyle>
	</Style>
	<wsr>
		<name>KABR</name>
		<description><![CDATA[SITE: KABR<BR>LOCATION: ABERDEEN<BR>LATITUDE: 45.456<BR>LONGITUDE: -98.413<BR>ELEVATION: 1302<BR><BR>ORDER DATA: <BR><A HREF="http://www.ncdc.noaa.gov/nexradinv/chooseday.jsp?id=KABR">http://www.ncdc.noaa.gov/nexradinv/chooseday.jsp?id=KABR</A>]]></description>
		<Point>
			<coordinates>-98.413,45.45600000000001,0</coordinates>
		</Point>
	</wsr>
	<wsr>
		<name>KABX</name>
		<description><![CDATA[SITE: KABX<BR>LOCATION: ALBUQUERQUE<BR>LATITUDE: 35.15<BR>LONGITUDE: -106.824<BR>ELEVATION: 5870<BR><BR>ORDER DATA: <BR><A HREF="http://www.ncdc.noaa.gov/nexradinv/chooseday.jsp?id=KABX">http://www.ncdc.noaa.gov/nexradinv/chooseday.jsp?id=KABX</A>]]></description>
		<Point>
			<coordinates>-106.824,35.15,0</coordinates>
		</Point>
	</wsr>
	<wsr>
		<name>KAKQ</name>
		<description><![CDATA[SITE: KAKQ<BR>LOCATION: NORFOLK/RICH<BR>LATITUDE: 36.984<BR>LONGITUDE: -77.007<BR>ELEVATION: 112<BR><BR>ORDER DATA: <BR><A HREF="http://www.ncdc.noaa.gov/nexradinv/chooseday.jsp?id=KAKQ">http://www.ncdc.noaa.gov/nexradinv/chooseday.jsp?id=KAKQ</A>]]></description>
		<Point>
			<coordinates>-77.00700000000001,36.984,0</coordinates>
		</Point>
	</wsr>
	<wsr>
		<name>KAMA</name>
		<description><![CDATA[SITE: KAMA<BR>LOCATION: AMARILLO<BR>LATITUDE: 35.233<BR>LONGITUDE: -101.709<BR>ELEVATION: 3587<BR><BR>ORDER DATA: <BR><A HREF="http://www.ncdc.noaa.gov/nexradinv/chooseday.jsp?id=KAMA">http://www.ncdc.noaa.gov/nexradinv/chooseday.jsp?id=KAMA</A>]]></description>
		<Point>
			<coordinates>-101.709,35.233,0</coordinates>
		</Point>
	</wsr>
	<wsr>
		<name>KAMX</name>
		<description><![CDATA[SITE: KAMX<BR>LOCATION: MIAMI<BR>LATITUDE: 25.611<BR>LONGITUDE: -80.413<BR>ELEVATION: 14<BR><BR>ORDER DATA: <BR><A HREF="http://www.ncdc.noaa.gov/nexradinv/chooseday.jsp?id=KAMX">http://www.ncdc.noaa.gov/nexradinv/chooseday.jsp?id=KAMX</A>]]></description>
		<Point>
			<coordinates>-80.413,25.611,0</coordinates>
		</Point>
	</wsr>
	<wsr>
		<name>KAPX</name>
		<description><![CDATA[SITE: KAPX<BR>LOCATION: GAYLORD<BR>LATITUDE: 44.907<BR>LONGITUDE: -84.72<BR>ELEVATION: 1464<BR><BR>ORDER DATA: <BR><A HREF="http://www.ncdc.noaa.gov/nexradinv/chooseday.jsp?id=KAPX">http://www.ncdc.noaa.gov/nexradinv/chooseday.jsp?id=KAPX</A>]]></description>
		<Point>
			<coordinates>-84.72,44.907,0</coordinates>
		</Point>
	</wsr>
	<wsr>
		<name>KARX</name>
		<description><![CDATA[SITE: KARX<BR>LOCATION: LA CROSSE<BR>LATITUDE: 43.823<BR>LONGITUDE: -91.191<BR>ELEVATION: 1276<BR><BR>ORDER DATA: <BR><A HREF="http://www.ncdc.noaa.gov/nexradinv/chooseday.jsp?id=KARX">http://www.ncdc.noaa.gov/nexradinv/chooseday.jsp?id=KARX</A>]]></description>
		<Point>
			<coordinates>-91.191,43.823,0</coordinates>
		</Point>
	</wsr>
	<wsr>
		<name>KATX</name>
		<description><![CDATA[SITE: KATX<BR>LOCATION: SEATTLE<BR>LATITUDE: 48.194<BR>LONGITUDE: -122.496<BR>ELEVATION: 494<BR><BR>ORDER DATA: <BR><A HREF="http://www.ncdc.noaa.gov/nexradinv/chooseday.jsp?id=KATX">http://www.ncdc.noaa.gov/nexradinv/chooseday.jsp?id=KATX</A>]]></description>
		<Point>
			<coordinates>-122.496,48.194,0</coordinates>
		</Point>
	</wsr>
	<wsr>
		<name>KBBX</name>
		<description><![CDATA[SITE: KBBX<BR>LOCATION: BEALE AFB<BR>LATITUDE: 39.496<BR>LONGITUDE: -121.632<BR>ELEVATION: 173<BR><BR>ORDER DATA: <BR><A HREF="http://www.ncdc.noaa.gov/nexradinv/chooseday.jsp?id=KBBX">http://www.ncdc.noaa.gov/nexradinv/chooseday.jsp?id=KBBX</A>]]></description>
		<Point>
			<coordinates>-121.632,39.496,0</coordinates>
		</Point>
	</wsr>
	<wsr>
		<name>KBGM</name>
		<description><![CDATA[SITE: KBGM<BR>LOCATION: BINGHAMTON<BR>LATITUDE: 42.2<BR>LONGITUDE: -75.985<BR>ELEVATION: 1606<BR><BR>ORDER DATA: <BR><A HREF="http://www.ncdc.noaa.gov/nexradinv/chooseday.jsp?id=KBGM">http://www.ncdc.noaa.gov/nexradinv/chooseday.jsp?id=KBGM</A>]]></description>
		<Point>
			<coordinates>-75.985,42.20000000000001,0</coordinates>
		</Point>
	</wsr>
	<wsr>
		<name>KBHX</name>
		<description><![CDATA[SITE: KBHX<BR>LOCATION: EUREKA<BR>LATITUDE: 40.498<BR>LONGITUDE: -124.292<BR>ELEVATION: 2402<BR><BR>ORDER DATA: <BR><A HREF="http://www.ncdc.noaa.gov/nexradinv/chooseday.jsp?id=KBHX">http://www.ncdc.noaa.gov/nexradinv/chooseday.jsp?id=KBHX</A>]]></description>
		<Point>
			<coordinates>-124.292,40.498,0</coordinates>
		</Point>
	</wsr>
	<wsr>
		<name>KBIS</name>
		<description><![CDATA[SITE: KBIS<BR>LOCATION: BISMARCK<BR>LATITUDE: 46.771<BR>LONGITUDE: -100.761<BR>ELEVATION: 1658<BR><BR>ORDER DATA: <BR><A HREF="http://www.ncdc.noaa.gov/nexradinv/chooseday.jsp?id=KBIS">http://www.ncdc.noaa.gov/nexradinv/chooseday.jsp?id=KBIS</A>]]></description>
		<Point>
			<coordinates>-100.761,46.771,0</coordinates>
		</Point>
	</wsr>
	<wsr>
		<name>KBIX</name>
		<description><![CDATA[SITE: KBIX<BR>LOCATION: KEESLER AFB<BR>LATITUDE: 30.524<BR>LONGITUDE: -88.985<BR>ELEVATION: 136<BR><BR>ORDER DATA: <BR><A HREF="http://www.ncdc.noaa.gov/nexradinv/chooseday.jsp?id=KBIX">http://www.ncdc.noaa.gov/nexradinv/chooseday.jsp?id=KBIX</A>]]></description>
		<Point>
			<coordinates>-88.985,30.524,0</coordinates>
		</Point>
	</wsr>
	<wsr>
		<name>KBLX</name>
		<description><![CDATA[SITE: KBLX<BR>LOCATION: BILLINGS<BR>LATITUDE: 45.854<BR>LONGITUDE: -108.607<BR>ELEVATION: 3598<BR><BR>ORDER DATA: <BR><A HREF="http://www.ncdc.noaa.gov/nexradinv/chooseday.jsp?id=KBLX">http://www.ncdc.noaa.gov/nexradinv/chooseday.jsp?id=KBLX</A>]]></description>
		<Point>
			<coordinates>-108.607,45.854,0</coordinates>
		</Point>
	</wsr>
	<wsr>
		<name>KBMX</name>
		<description><![CDATA[SITE: KBMX<BR>LOCATION: BIRMINGHAM<BR>LATITUDE: 33.172<BR>LONGITUDE: -86.77<BR>ELEVATION: 645<BR><BR>ORDER DATA: <BR><A HREF="http://www.ncdc.noaa.gov/nexradinv/chooseday.jsp?id=KBMX">http://www.ncdc.noaa.gov/nexradinv/chooseday.jsp?id=KBMX</A>]]></description>
		<Point>
			<coordinates>-86.77,33.172,0</coordinates>
		</Point>
	</wsr>
	<wsr>
		<name>KBOX</name>
		<description><![CDATA[SITE: KBOX<BR>LOCATION: BOSTON<BR>LATITUDE: 41.956<BR>LONGITUDE: -71.137<BR>ELEVATION: 118<BR><BR>ORDER DATA: <BR><A HREF="http://www.ncdc.noaa.gov/nexradinv/chooseday.jsp?id=KBOX">http://www.ncdc.noaa.gov/nexradinv/chooseday.jsp?id=KBOX</A>]]></description>
		<Point>
			<coordinates>-71.137,41.956,0</coordinates>
		</Point>
	</wsr>
	<wsr>
		<name>KBRO</name>
		<description><![CDATA[SITE: KBRO<BR>LOCATION: BROWNSVILLE<BR>LATITUDE: 25.916<BR>LONGITUDE: -97.419<BR>ELEVATION: 23<BR><BR>ORDER DATA: <BR><A HREF="http://www.ncdc.noaa.gov/nexradinv/chooseday.jsp?id=KBRO">http://www.ncdc.noaa.gov/nexradinv/chooseday.jsp?id=KBRO</A>]]></description>
		<Point>
			<coordinates>-97.419,25.916,0</coordinates>
		</Point>
	</wsr>
	<wsr>
		<name>KBUF</name>
		<description><![CDATA[SITE: KBUF<BR>LOCATION: BUFFALO<BR>LATITUDE: 42.949<BR>LONGITUDE: -78.737<BR>ELEVATION: 693<BR><BR>ORDER DATA: <BR><A HREF="http://www.ncdc.noaa.gov/nexradinv/chooseday.jsp?id=KBUF">http://www.ncdc.noaa.gov/nexradinv/chooseday.jsp?id=KBUF</A>]]></description>
		<Point>
			<coordinates>-78.73699999999999,42.949,0</coordinates>
		</Point>
	</wsr>
	<wsr>
		<name>KBYX</name>
		<description><![CDATA[SITE: KBYX<BR>LOCATION: KEY WEST<BR>LATITUDE: 24.598<BR>LONGITUDE: -81.703<BR>ELEVATION: 8<BR><BR>ORDER DATA: <BR><A HREF="http://www.ncdc.noaa.gov/nexradinv/chooseday.jsp?id=KBYX">http://www.ncdc.noaa.gov/nexradinv/chooseday.jsp?id=KBYX</A>]]></description>
		<Point>
			<coordinates>-81.703,24.598,0</coordinates>
		</Point>
	</wsr>
	<wsr>
		<name>KCAE</name>
		<description><![CDATA[SITE: KCAE<BR>LOCATION: COLUMBIA<BR>LATITUDE: 33.949<BR>LONGITUDE: -81.118<BR>ELEVATION: 231<BR><BR>ORDER DATA: <BR><A HREF="http://www.ncdc.noaa.gov/nexradinv/chooseday.jsp?id=KCAE">http://www.ncdc.noaa.gov/nexradinv/chooseday.jsp?id=KCAE</A>]]></description>
		<Point>
			<coordinates>-81.11799999999999,33.949,0</coordinates>
		</Point>
	</wsr>
	<wsr>
		<name>KCBW</name>
		<description><![CDATA[SITE: KCBW<BR>LOCATION: HOULTON<BR>LATITUDE: 46.039<BR>LONGITUDE: -67.806<BR>ELEVATION: 746<BR><BR>ORDER DATA: <BR><A HREF="http://www.ncdc.noaa.gov/nexradinv/chooseday.jsp?id=KCBW">http://www.ncdc.noaa.gov/nexradinv/chooseday.jsp?id=KCBW</A>]]></description>
		<Point>
			<coordinates>-67.806,46.039,0</coordinates>
		</Point>
	</wsr>
	<wsr>
		<name>KCBX</name>
		<description><![CDATA[SITE: KCBX<BR>LOCATION: BOISE<BR>LATITUDE: 43.491<BR>LONGITUDE: -116.236<BR>ELEVATION: 3061<BR><BR>ORDER DATA: <BR><A HREF="http://www.ncdc.noaa.gov/nexradinv/chooseday.jsp?id=KCBX">http://www.ncdc.noaa.gov/nexradinv/chooseday.jsp?id=KCBX</A>]]></description>
		<Point>
			<coordinates>-116.236,43.491,0</coordinates>
		</Point>
	</wsr>
	<wsr>
		<name>KCCX</name>
		<description><![CDATA[SITE: KCCX<BR>LOCATION: STATE COLLEGE<BR>LATITUDE: 40.923<BR>LONGITUDE: -78.004<BR>ELEVATION: 2405<BR><BR>ORDER DATA: <BR><A HREF="http://www.ncdc.noaa.gov/nexradinv/chooseday.jsp?id=KCCX">http://www.ncdc.noaa.gov/nexradinv/chooseday.jsp?id=KCCX</A>]]></description>
		<Point>
			<coordinates>-78.004,40.923,0</coordinates>
		</Point>
	</wsr>
	<wsr>
		<name>KCLE</name>
		<description><![CDATA[SITE: KCLE<BR>LOCATION: CLEVELAND<BR>LATITUDE: 41.413<BR>LONGITUDE: -81.86<BR>ELEVATION: 763<BR><BR>ORDER DATA: <BR><A HREF="http://www.ncdc.noaa.gov/nexradinv/chooseday.jsp?id=KCLE">http://www.ncdc.noaa.gov/nexradinv/chooseday.jsp?id=KCLE</A>]]></description>
		<Point>
			<coordinates>-81.86,41.413,0</coordinates>
		</Point>
	</wsr>
	<wsr>
		<name>KCLX</name>
		<description><![CDATA[SITE: KCLX<BR>LOCATION: CHARLESTON<BR>LATITUDE: 32.656<BR>LONGITUDE: -81.042<BR>ELEVATION: 97<BR><BR>ORDER DATA: <BR><A HREF="http://www.ncdc.noaa.gov/nexradinv/chooseday.jsp?id=KCLX">http://www.ncdc.noaa.gov/nexradinv/chooseday.jsp?id=KCLX</A>]]></description>
		<Point>
			<coordinates>-81.042,32.656,0</coordinates>
		</Point>
	</wsr>
	<wsr>
		<name>KCRI</name>
		<description><![CDATA[SITE: KCRI<BR>LOCATION: NORMAN<BR>LATITUDE: 35.238<BR>LONGITUDE: -97.46<BR>ELEVATION: 1295<BR><BR>ORDER DATA: <BR><A HREF="http://www.ncdc.noaa.gov/nexradinv/chooseday.jsp?id=KCRI">http://www.ncdc.noaa.gov/nexradinv/chooseday.jsp?id=KCRI</A>]]></description>
		<Point>
			<coordinates>-97.45999999999999,35.238,0</coordinates>
		</Point>
	</wsr>
	<wsr>
		<name>KCRP</name>
		<description><![CDATA[SITE: KCRP<BR>LOCATION: CORP CHRISTI<BR>LATITUDE: 27.784<BR>LONGITUDE: -97.511<BR>ELEVATION: 45<BR><BR>ORDER DATA: <BR><A HREF="http://www.ncdc.noaa.gov/nexradinv/chooseday.jsp?id=KCRP">http://www.ncdc.noaa.gov/nexradinv/chooseday.jsp?id=KCRP</A>]]></description>
		<Point>
			<coordinates>-97.51100000000001,27.784,0</coordinates>
		</Point>
	</wsr>
	<wsr>
		<name>KCXX</name>
		<description><![CDATA[SITE: KCXX<BR>LOCATION: BURLINGTON<BR>LATITUDE: 44.511<BR>LONGITUDE: -73.167<BR>ELEVATION: 317<BR><BR>ORDER DATA: <BR><A HREF="http://www.ncdc.noaa.gov/nexradinv/chooseday.jsp?id=KCXX">http://www.ncdc.noaa.gov/nexradinv/chooseday.jsp?id=KCXX</A>]]></description>
		<Point>
			<coordinates>-73.167,44.511,0</coordinates>
		</Point>
	</wsr>
	<wsr>
		<name>KCYS</name>
		<description><![CDATA[SITE: KCYS<BR>LOCATION: CHEYENNE<BR>LATITUDE: 41.152<BR>LONGITUDE: -104.806<BR>ELEVATION: 6128<BR><BR>ORDER DATA: <BR><A HREF="http://www.ncdc.noaa.gov/nexradinv/chooseday.jsp?id=KCYS">http://www.ncdc.noaa.gov/nexradinv/chooseday.jsp?id=KCYS</A>]]></description>
		<Point>
			<coordinates>-104.806,41.152,0</coordinates>
		</Point>
	</wsr>
	<wsr>
		<name>KDAX</name>
		<description><![CDATA[SITE: KDAX<BR>LOCATION: SACRAMENTO<BR>LATITUDE: 38.501<BR>LONGITUDE: -121.678<BR>ELEVATION: 30<BR><BR>ORDER DATA: <BR><A HREF="http://www.ncdc.noaa.gov/nexradinv/chooseday.jsp?id=KDAX">http://www.ncdc.noaa.gov/nexradinv/chooseday.jsp?id=KDAX</A>]]></description>
		<Point>
			<coordinates>-121.678,38.501,0</coordinates>
		</Point>
	</wsr>
	<wsr>
		<name>KDDC</name>
		<description><![CDATA[SITE: KDDC<BR>LOCATION: DODGE CITY<BR>LATITUDE: 37.761<BR>LONGITUDE: -99.969<BR>ELEVATION: 2590<BR><BR>ORDER DATA: <BR><A HREF="http://www.ncdc.noaa.gov/nexradinv/chooseday.jsp?id=KDDC">http://www.ncdc.noaa.gov/nexradinv/chooseday.jsp?id=KDDC</A>]]></description>
		<Point>
			<coordinates>-99.96899999999999,37.761,0</coordinates>
		</Point>
	</wsr>
	<wsr>
		<name>KDFX</name>
		<description><![CDATA[SITE: KDFX<BR>LOCATION: LAUGHLIN AFB<BR>LATITUDE: 29.273<BR>LONGITUDE: -100.281<BR>ELEVATION: 1131<BR><BR>ORDER DATA: <BR><A HREF="http://www.ncdc.noaa.gov/nexradinv/chooseday.jsp?id=KDFX">http://www.ncdc.noaa.gov/nexradinv/chooseday.jsp?id=KDFX</A>]]></description>
		<Point>
			<coordinates>-100.281,29.273,0</coordinates>
		</Point>
	</wsr>
	<wsr>
		<name>KDIX</name>
		<description><![CDATA[SITE: KDIX<BR>LOCATION: PHILADELPHIA<BR>LATITUDE: 39.947<BR>LONGITUDE: -74.411<BR>ELEVATION: 149<BR><BR>ORDER DATA: <BR><A HREF="http://www.ncdc.noaa.gov/nexradinv/chooseday.jsp?id=KDIX">http://www.ncdc.noaa.gov/nexradinv/chooseday.jsp?id=KDIX</A>]]></description>
		<Point>
			<coordinates>-74.411,39.947,0</coordinates>
		</Point>
	</wsr>
	<wsr>
		<name>KDLH</name>
		<description><![CDATA[SITE: KDLH<BR>LOCATION: DULUTH<BR>LATITUDE: 46.837<BR>LONGITUDE: -92.21<BR>ELEVATION: 1428<BR><BR>ORDER DATA: <BR><A HREF="http://www.ncdc.noaa.gov/nexradinv/chooseday.jsp?id=KDLH">http://www.ncdc.noaa.gov/nexradinv/chooseday.jsp?id=KDLH</A>]]></description>
		<Point>
			<coordinates>-92.20999999999999,46.837,0</coordinates>
		</Point>
	</wsr>
	<wsr>
		<name>KDMX</name>
		<description><![CDATA[SITE: KDMX<BR>LOCATION: DES MOINES<BR>LATITUDE: 41.731<BR>LONGITUDE: -93.723<BR>ELEVATION: 981<BR><BR>ORDER DATA: <BR><A HREF="http://www.ncdc.noaa.gov/nexradinv/chooseday.jsp?id=KDMX">http://www.ncdc.noaa.gov/nexradinv/chooseday.jsp?id=KDMX</A>]]></description>
		<Point>
			<coordinates>-93.72300000000001,41.731,0</coordinates>
		</Point>
	</wsr>
	<wsr>
		<name>KDOX</name>
		<description><![CDATA[SITE: KDOX<BR>LOCATION: DOVER AFB<BR>LATITUDE: 38.826<BR>LONGITUDE: -75.44<BR>ELEVATION: 50<BR><BR>ORDER DATA: <BR><A HREF="http://www.ncdc.noaa.gov/nexradinv/chooseday.jsp?id=KDOX">http://www.ncdc.noaa.gov/nexradinv/chooseday.jsp?id=KDOX</A>]]></description>
		<Point>
			<coordinates>-75.44,38.826,0</coordinates>
		</Point>
	</wsr>
	<wsr>
		<name>KDTX</name>
		<description><![CDATA[SITE: KDTX<BR>LOCATION: DETROIT<BR>LATITUDE: 42.7<BR>LONGITUDE: -83.472<BR>ELEVATION: 1072<BR><BR>ORDER DATA: <BR><A HREF="http://www.ncdc.noaa.gov/nexradinv/chooseday.jsp?id=KDTX">http://www.ncdc.noaa.gov/nexradinv/chooseday.jsp?id=KDTX</A>]]></description>
		<Point>
			<coordinates>-83.47199999999999,42.7,0</coordinates>
		</Point>
	</wsr>
	<wsr>
		<name>KDVN</name>
		<description><![CDATA[SITE: KDVN<BR>LOCATION: DAVENPORT<BR>LATITUDE: 41.612<BR>LONGITUDE: -90.581<BR>ELEVATION: 754<BR><BR>ORDER DATA: <BR><A HREF="http://www.ncdc.noaa.gov/nexradinv/chooseday.jsp?id=KDVN">http://www.ncdc.noaa.gov/nexradinv/chooseday.jsp?id=KDVN</A>]]></description>
		<Point>
			<coordinates>-90.581,41.612,0</coordinates>
		</Point>
	</wsr>
	<wsr>
		<name>KDYX</name>
		<description><![CDATA[SITE: KDYX<BR>LOCATION: DYESS AFB<BR>LATITUDE: 32.538<BR>LONGITUDE: -99.254<BR>ELEVATION: 1517<BR><BR>ORDER DATA: <BR><A HREF="http://www.ncdc.noaa.gov/nexradinv/chooseday.jsp?id=KDYX">http://www.ncdc.noaa.gov/nexradinv/chooseday.jsp?id=KDYX</A>]]></description>
		<Point>
			<coordinates>-99.25400000000002,32.538,0</coordinates>
		</Point>
	</wsr>
	<wsr>
		<name>KEAX</name>
		<description><![CDATA[SITE: KEAX<BR>LOCATION: KANSAS CITY<BR>LATITUDE: 38.81<BR>LONGITUDE: -94.264<BR>ELEVATION: 995<BR><BR>ORDER DATA: <BR><A HREF="http://www.ncdc.noaa.gov/nexradinv/chooseday.jsp?id=KEAX">http://www.ncdc.noaa.gov/nexradinv/chooseday.jsp?id=KEAX</A>]]></description>
		<Point>
			<coordinates>-94.264,38.81,0</coordinates>
		</Point>
	</wsr>
	<wsr>
		<name>KEMX</name>
		<description><![CDATA[SITE: KEMX<BR>LOCATION: TUCSON<BR>LATITUDE: 31.894<BR>LONGITUDE: -110.63<BR>ELEVATION: 5202<BR><BR>ORDER DATA: <BR><A HREF="http://www.ncdc.noaa.gov/nexradinv/chooseday.jsp?id=KEMX">http://www.ncdc.noaa.gov/nexradinv/chooseday.jsp?id=KEMX</A>]]></description>
		<Point>
			<coordinates>-110.63,31.89399999999999,0</coordinates>
		</Point>
	</wsr>
	<wsr>
		<name>KENX</name>
		<description><![CDATA[SITE: KENX<BR>LOCATION: ALBANY<BR>LATITUDE: 42.586<BR>LONGITUDE: -74.064<BR>ELEVATION: 1826<BR><BR>ORDER DATA: <BR><A HREF="http://www.ncdc.noaa.gov/nexradinv/chooseday.jsp?id=KENX">http://www.ncdc.noaa.gov/nexradinv/chooseday.jsp?id=KENX</A>]]></description>
		<Point>
			<coordinates>-74.06399999999999,42.586,0</coordinates>
		</Point>
	</wsr>
	<wsr>
		<name>KEOX</name>
		<description><![CDATA[SITE: KEOX<BR>LOCATION: FORT RUCKER<BR>LATITUDE: 31.461<BR>LONGITUDE: -85.459<BR>ELEVATION: 434<BR><BR>ORDER DATA: <BR><A HREF="http://www.ncdc.noaa.gov/nexradinv/chooseday.jsp?id=KEOX">http://www.ncdc.noaa.gov/nexradinv/chooseday.jsp?id=KEOX</A>]]></description>
		<Point>
			<coordinates>-85.459,31.461,0</coordinates>
		</Point>
	</wsr>
	<wsr>
		<name>KEPZ</name>
		<description><![CDATA[SITE: KEPZ<BR>LOCATION: EL PASO<BR>LATITUDE: 31.873<BR>LONGITUDE: -106.698<BR>ELEVATION: 4104<BR><BR>ORDER DATA: <BR><A HREF="http://www.ncdc.noaa.gov/nexradinv/chooseday.jsp?id=KEPZ">http://www.ncdc.noaa.gov/nexradinv/chooseday.jsp?id=KEPZ</A>]]></description>
		<Point>
			<coordinates>-106.698,31.87300000000001,0</coordinates>
		</Point>
	</wsr>
	<wsr>
		<name>KESX</name>
		<description><![CDATA[SITE: KESX<BR>LOCATION: LAS VEGAS<BR>LATITUDE: 35.701<BR>LONGITUDE: -114.891<BR>ELEVATION: 4867<BR><BR>ORDER DATA: <BR><A HREF="http://www.ncdc.noaa.gov/nexradinv/chooseday.jsp?id=KESX">http://www.ncdc.noaa.gov/nexradinv/chooseday.jsp?id=KESX</A>]]></description>
		<Point>
			<coordinates>-114.891,35.701,0</coordinates>
		</Point>
	</wsr>
	<wsr>
		<name>KEVX</name>
		<description><![CDATA[SITE: KEVX<BR>LOCATION: EGLIN AFB<BR>LATITUDE: 30.564<BR>LONGITUDE: -85.921<BR>ELEVATION: 140<BR><BR>ORDER DATA: <BR><A HREF="http://www.ncdc.noaa.gov/nexradinv/chooseday.jsp?id=KEVX">http://www.ncdc.noaa.gov/nexradinv/chooseday.jsp?id=KEVX</A>]]></description>
		<Point>
			<coordinates>-85.92100000000001,30.564,0</coordinates>
		</Point>
	</wsr>
	<wsr>
		<name>KEWX</name>
		<description><![CDATA[SITE: KEWX<BR>LOCATION: AUSTIN/S ANT<BR>LATITUDE: 29.704<BR>LONGITUDE: -98.028<BR>ELEVATION: 633<BR><BR>ORDER DATA: <BR><A HREF="http://www.ncdc.noaa.gov/nexradinv/chooseday.jsp?id=KEWX">http://www.ncdc.noaa.gov/nexradinv/chooseday.jsp?id=KEWX</A>]]></description>
		<Point>
			<coordinates>-98.02800000000002,29.704,0</coordinates>
		</Point>
	</wsr>
	<wsr>
		<name>KEYX</name>
		<description><![CDATA[SITE: KEYX<BR>LOCATION: EDWARDS AFB<BR>LATITUDE: 35.098<BR>LONGITUDE: -117.561<BR>ELEVATION: 2757<BR><BR>ORDER DATA: <BR><A HREF="http://www.ncdc.noaa.gov/nexradinv/chooseday.jsp?id=KEYX">http://www.ncdc.noaa.gov/nexradinv/chooseday.jsp?id=KEYX</A>]]></description>
		<Point>
			<coordinates>-117.561,35.098,0</coordinates>
		</Point>
	</wsr>
	<wsr>
		<name>KFCX</name>
		<description><![CDATA[SITE: KFCX<BR>LOCATION: ROANOKE<BR>LATITUDE: 37.024<BR>LONGITUDE: -80.274<BR>ELEVATION: 2868<BR><BR>ORDER DATA: <BR><A HREF="http://www.ncdc.noaa.gov/nexradinv/chooseday.jsp?id=KFCX">http://www.ncdc.noaa.gov/nexradinv/chooseday.jsp?id=KFCX</A>]]></description>
		<Point>
			<coordinates>-80.274,37.024,0</coordinates>
		</Point>
	</wsr>
	<wsr>
		<name>KFDR</name>
		<description><![CDATA[SITE: KFDR<BR>LOCATION: ALTUS AFB<BR>LATITUDE: 34.362<BR>LONGITUDE: -98.976<BR>ELEVATION: 1267<BR><BR>ORDER DATA: <BR><A HREF="http://www.ncdc.noaa.gov/nexradinv/chooseday.jsp?id=KFDR">http://www.ncdc.noaa.gov/nexradinv/chooseday.jsp?id=KFDR</A>]]></description>
		<Point>
			<coordinates>-98.97600000000001,34.362,0</coordinates>
		</Point>
	</wsr>
	<wsr>
		<name>KFDX</name>
		<description><![CDATA[SITE: KFDX<BR>LOCATION: CANNON AFB<BR>LATITUDE: 34.635<BR>LONGITUDE: -103.63<BR>ELEVATION: 4650<BR><BR>ORDER DATA: <BR><A HREF="http://www.ncdc.noaa.gov/nexradinv/chooseday.jsp?id=KFDX">http://www.ncdc.noaa.gov/nexradinv/chooseday.jsp?id=KFDX</A>]]></description>
		<Point>
			<coordinates>-103.63,34.635,0</coordinates>
		</Point>
	</wsr>
	<wsr>
		<name>KFFC</name>
		<description><![CDATA[SITE: KFFC<BR>LOCATION: ATLANTA<BR>LATITUDE: 33.364<BR>LONGITUDE: -84.566<BR>ELEVATION: 858<BR><BR>ORDER DATA: <BR><A HREF="http://www.ncdc.noaa.gov/nexradinv/chooseday.jsp?id=KFFC">http://www.ncdc.noaa.gov/nexradinv/chooseday.jsp?id=KFFC</A>]]></description>
		<Point>
			<coordinates>-84.566,33.364,0</coordinates>
		</Point>
	</wsr>
	<wsr>
		<name>KFSD</name>
		<description><![CDATA[SITE: KFSD<BR>LOCATION: SIOUX FALLS<BR>LATITUDE: 43.588<BR>LONGITUDE: -96.729<BR>ELEVATION: 1430<BR><BR>ORDER DATA: <BR><A HREF="http://www.ncdc.noaa.gov/nexradinv/chooseday.jsp?id=KFSD">http://www.ncdc.noaa.gov/nexradinv/chooseday.jsp?id=KFSD</A>]]></description>
		<Point>
			<coordinates>-96.729,43.588,0</coordinates>
		</Point>
	</wsr>
	<wsr>
		<name>KFSX</name>
		<description><![CDATA[SITE: KFSX<BR>LOCATION: FLAGSTAFF<BR>LATITUDE: 34.574<BR>LONGITUDE: -111.198<BR>ELEVATION: 7417<BR><BR>ORDER DATA: <BR><A HREF="http://www.ncdc.noaa.gov/nexradinv/chooseday.jsp?id=KFSX">http://www.ncdc.noaa.gov/nexradinv/chooseday.jsp?id=KFSX</A>]]></description>
		<Point>
			<coordinates>-111.198,34.574,0</coordinates>
		</Point>
	</wsr>
	<wsr>
		<name>KFTG</name>
		<description><![CDATA[SITE: KFTG<BR>LOCATION: DENVER<BR>LATITUDE: 39.787<BR>LONGITUDE: -104.546<BR>ELEVATION: 5497<BR><BR>ORDER DATA: <BR><A HREF="http://www.ncdc.noaa.gov/nexradinv/chooseday.jsp?id=KFTG">http://www.ncdc.noaa.gov/nexradinv/chooseday.jsp?id=KFTG</A>]]></description>
		<Point>
			<coordinates>-104.546,39.787,0</coordinates>
		</Point>
	</wsr>
	<wsr>
		<name>KFWS</name>
		<description><![CDATA[SITE: KFWS<BR>LOCATION: DALLAS/FTW<BR>LATITUDE: 32.573<BR>LONGITUDE: -97.303<BR>ELEVATION: 683<BR><BR>ORDER DATA: <BR><A HREF="http://www.ncdc.noaa.gov/nexradinv/chooseday.jsp?id=KFWS">http://www.ncdc.noaa.gov/nexradinv/chooseday.jsp?id=KFWS</A>]]></description>
		<Point>
			<coordinates>-97.303,32.573,0</coordinates>
		</Point>
	</wsr>
	<wsr>
		<name>KGGW</name>
		<description><![CDATA[SITE: KGGW<BR>LOCATION: GLASGOW<BR>LATITUDE: 48.206<BR>LONGITUDE: -106.625<BR>ELEVATION: 2276<BR><BR>ORDER DATA: <BR><A HREF="http://www.ncdc.noaa.gov/nexradinv/chooseday.jsp?id=KGGW">http://www.ncdc.noaa.gov/nexradinv/chooseday.jsp?id=KGGW</A>]]></description>
		<Point>
			<coordinates>-106.625,48.206,0</coordinates>
		</Point>
	</wsr>
	<wsr>
		<name>KGJX</name>
		<description><![CDATA[SITE: KGJX<BR>LOCATION: GRAND JUNCT<BR>LATITUDE: 39.062<BR>LONGITUDE: -108.214<BR>ELEVATION: 9992<BR><BR>ORDER DATA: <BR><A HREF="http://www.ncdc.noaa.gov/nexradinv/chooseday.jsp?id=KGJX">http://www.ncdc.noaa.gov/nexradinv/chooseday.jsp?id=KGJX</A>]]></description>
		<Point>
			<coordinates>-108.214,39.062,0</coordinates>
		</Point>
	</wsr>
	<wsr>
		<name>KGLD</name>
		<description><![CDATA[SITE: KGLD<BR>LOCATION: GOODLAND<BR>LATITUDE: 39.367<BR>LONGITUDE: -101.7<BR>ELEVATION: 3651<BR><BR>ORDER DATA: <BR><A HREF="http://www.ncdc.noaa.gov/nexradinv/chooseday.jsp?id=KGLD">http://www.ncdc.noaa.gov/nexradinv/chooseday.jsp?id=KGLD</A>]]></description>
		<Point>
			<coordinates>-101.7,39.367,0</coordinates>
		</Point>
	</wsr>
	<wsr>
		<name>KGRB</name>
		<description><![CDATA[SITE: KGRB<BR>LOCATION: GREEN BAY<BR>LATITUDE: 44.498<BR>LONGITUDE: -88.111<BR>ELEVATION: 682<BR><BR>ORDER DATA: <BR><A HREF="http://www.ncdc.noaa.gov/nexradinv/chooseday.jsp?id=KGRB">http://www.ncdc.noaa.gov/nexradinv/chooseday.jsp?id=KGRB</A>]]></description>
		<Point>
			<coordinates>-88.111,44.498,0</coordinates>
		</Point>
	</wsr>
	<wsr>
		<name>KGRK</name>
		<description><![CDATA[SITE: KGRK<BR>LOCATION: FORT HOOD<BR>LATITUDE: 30.722<BR>LONGITUDE: -97.383<BR>ELEVATION: 538<BR><BR>ORDER DATA: <BR><A HREF="http://www.ncdc.noaa.gov/nexradinv/chooseday.jsp?id=KGRK">http://www.ncdc.noaa.gov/nexradinv/chooseday.jsp?id=KGRK</A>]]></description>
		<Point>
			<coordinates>-97.38300000000001,30.722,0</coordinates>
		</Point>
	</wsr>
	<wsr>
		<name>KGRR</name>
		<description><![CDATA[SITE: KGRR<BR>LOCATION: GRAND RAPIDS<BR>LATITUDE: 42.894<BR>LONGITUDE: -85.545<BR>ELEVATION: 778<BR><BR>ORDER DATA: <BR><A HREF="http://www.ncdc.noaa.gov/nexradinv/chooseday.jsp?id=KGRR">http://www.ncdc.noaa.gov/nexradinv/chooseday.jsp?id=KGRR</A>]]></description>
		<Point>
			<coordinates>-85.545,42.89400000000001,0</coordinates>
		</Point>
	</wsr>
	<wsr>
		<name>KGSP</name>
		<description><![CDATA[SITE: KGSP<BR>LOCATION: GREER<BR>LATITUDE: 34.883<BR>LONGITUDE: -82.22<BR>ELEVATION: 940<BR><BR>ORDER DATA: <BR><A HREF="http://www.ncdc.noaa.gov/nexradinv/chooseday.jsp?id=KGSP">http://www.ncdc.noaa.gov/nexradinv/chooseday.jsp?id=KGSP</A>]]></description>
		<Point>
			<coordinates>-82.22,34.883,0</coordinates>
		</Point>
	</wsr>
	<wsr>
		<name>KGWX</name>
		<description><![CDATA[SITE: KGWX<BR>LOCATION: COLUMBUS AFB<BR>LATITUDE: 33.897<BR>LONGITUDE: -88.329<BR>ELEVATION: 476<BR><BR>ORDER DATA: <BR><A HREF="http://www.ncdc.noaa.gov/nexradinv/chooseday.jsp?id=KGWX">http://www.ncdc.noaa.gov/nexradinv/chooseday.jsp?id=KGWX</A>]]></description>
		<Point>
			<coordinates>-88.32899999999999,33.897,0</coordinates>
		</Point>
	</wsr>
	<wsr>
		<name>KGYX</name>
		<description><![CDATA[SITE: KGYX<BR>LOCATION: PORTLAND<BR>LATITUDE: 43.891<BR>LONGITUDE: -70.256<BR>ELEVATION: 409<BR><BR>ORDER DATA: <BR><A HREF="http://www.ncdc.noaa.gov/nexradinv/chooseday.jsp?id=KGYX">http://www.ncdc.noaa.gov/nexradinv/chooseday.jsp?id=KGYX</A>]]></description>
		<Point>
			<coordinates>-70.256,43.891,0</coordinates>
		</Point>
	</wsr>
	<wsr>
		<name>KHDX</name>
		<description><![CDATA[SITE: KHDX<BR>LOCATION: HOLLOMAN AFB<BR>LATITUDE: 33.076<BR>LONGITUDE: -106.123<BR>ELEVATION: 4222<BR><BR>ORDER DATA: <BR><A HREF="http://www.ncdc.noaa.gov/nexradinv/chooseday.jsp?id=KHDX">http://www.ncdc.noaa.gov/nexradinv/chooseday.jsp?id=KHDX</A>]]></description>
		<Point>
			<coordinates>-106.123,33.076,0</coordinates>
		</Point>
	</wsr>
	<wsr>
		<name>KHGX</name>
		<description><![CDATA[SITE: KHGX<BR>LOCATION: HOUSTON<BR>LATITUDE: 29.472<BR>LONGITUDE: -95.079<BR>ELEVATION: 18<BR><BR>ORDER DATA: <BR><A HREF="http://www.ncdc.noaa.gov/nexradinv/chooseday.jsp?id=KHGX">http://www.ncdc.noaa.gov/nexradinv/chooseday.jsp?id=KHGX</A>]]></description>
		<Point>
			<coordinates>-95.07899999999999,29.472,0</coordinates>
		</Point>
	</wsr>
	<wsr>
		<name>KHNX</name>
		<description><![CDATA[SITE: KHNX<BR>LOCATION: SAN JOAQUIN V<BR>LATITUDE: 36.314<BR>LONGITUDE: -119.632<BR>ELEVATION: 243<BR><BR>ORDER DATA: <BR><A HREF="http://www.ncdc.noaa.gov/nexradinv/chooseday.jsp?id=KHNX">http://www.ncdc.noaa.gov/nexradinv/chooseday.jsp?id=KHNX</A>]]></description>
		<Point>
			<coordinates>-119.632,36.314,0</coordinates>
		</Point>
	</wsr>
	<wsr>
		<name>KHPX</name>
		<description><![CDATA[SITE: KHPX<BR>LOCATION: FORT CAMPBELL<BR>LATITUDE: 36.737<BR>LONGITUDE: -87.285<BR>ELEVATION: 576<BR><BR>ORDER DATA: <BR><A HREF="http://www.ncdc.noaa.gov/nexradinv/chooseday.jsp?id=KHPX">http://www.ncdc.noaa.gov/nexradinv/chooseday.jsp?id=KHPX</A>]]></description>
		<Point>
			<coordinates>-87.285,36.737,0</coordinates>
		</Point>
	</wsr>
	<wsr>
		<name>KHTX</name>
		<description><![CDATA[SITE: KHTX<BR>LOCATION: HUNTSVILLE<BR>LATITUDE: 34.931<BR>LONGITUDE: -86.083<BR>ELEVATION: 1760<BR><BR>ORDER DATA: <BR><A HREF="http://www.ncdc.noaa.gov/nexradinv/chooseday.jsp?id=KHTX">http://www.ncdc.noaa.gov/nexradinv/chooseday.jsp?id=KHTX</A>]]></description>
		<Point>
			<coordinates>-86.083,34.931,0</coordinates>
		</Point>
	</wsr>
	<wsr>
		<name>KICT</name>
		<description><![CDATA[SITE: KICT<BR>LOCATION: WICHITA<BR>LATITUDE: 37.655<BR>LONGITUDE: -97.443<BR>ELEVATION: 1335<BR><BR>ORDER DATA: <BR><A HREF="http://www.ncdc.noaa.gov/nexradinv/chooseday.jsp?id=KICT">http://www.ncdc.noaa.gov/nexradinv/chooseday.jsp?id=KICT</A>]]></description>
		<Point>
			<coordinates>-97.443,37.655,0</coordinates>
		</Point>
	</wsr>
	<wsr>
		<name>KICX</name>
		<description><![CDATA[SITE: KICX<BR>LOCATION: CEDAR CITY<BR>LATITUDE: 37.591<BR>LONGITUDE: -112.862<BR>ELEVATION: 10600<BR><BR>ORDER DATA: <BR><A HREF="http://www.ncdc.noaa.gov/nexradinv/chooseday.jsp?id=KICX">http://www.ncdc.noaa.gov/nexradinv/chooseday.jsp?id=KICX</A>]]></description>
		<Point>
			<coordinates>-112.862,37.591,0</coordinates>
		</Point>
	</wsr>
	<wsr>
		<name>KILN</name>
		<description><![CDATA[SITE: KILN<BR>LOCATION: CINCINNATI<BR>LATITUDE: 39.42<BR>LONGITUDE: -83.822<BR>ELEVATION: 1056<BR><BR>ORDER DATA: <BR><A HREF="http://www.ncdc.noaa.gov/nexradinv/chooseday.jsp?id=KILN">http://www.ncdc.noaa.gov/nexradinv/chooseday.jsp?id=KILN</A>]]></description>
		<Point>
			<coordinates>-83.822,39.42,0</coordinates>
		</Point>
	</wsr>
	<wsr>
		<name>KILX</name>
		<description><![CDATA[SITE: KILX<BR>LOCATION: LINCOLN<BR>LATITUDE: 40.151<BR>LONGITUDE: -89.337<BR>ELEVATION: 582<BR><BR>ORDER DATA: <BR><A HREF="http://www.ncdc.noaa.gov/nexradinv/chooseday.jsp?id=KILX">http://www.ncdc.noaa.gov/nexradinv/chooseday.jsp?id=KILX</A>]]></description>
		<Point>
			<coordinates>-89.337,40.151,0</coordinates>
		</Point>
	</wsr>
	<wsr>
		<name>KIND</name>
		<description><![CDATA[SITE: KIND<BR>LOCATION: INDIANAPOLIS<BR>LATITUDE: 39.708<BR>LONGITUDE: -86.28<BR>ELEVATION: 790<BR><BR>ORDER DATA: <BR><A HREF="http://www.ncdc.noaa.gov/nexradinv/chooseday.jsp?id=KIND">http://www.ncdc.noaa.gov/nexradinv/chooseday.jsp?id=KIND</A>]]></description>
		<Point>
			<coordinates>-86.28,39.708,0</coordinates>
		</Point>
	</wsr>
	<wsr>
		<name>KINX</name>
		<description><![CDATA[SITE: KINX<BR>LOCATION: TULSA<BR>LATITUDE: 36.175<BR>LONGITUDE: -95.565<BR>ELEVATION: 668<BR><BR>ORDER DATA: <BR><A HREF="http://www.ncdc.noaa.gov/nexradinv/chooseday.jsp?id=KINX">http://www.ncdc.noaa.gov/nexradinv/chooseday.jsp?id=KINX</A>]]></description>
		<Point>
			<coordinates>-95.56500000000001,36.175,0</coordinates>
		</Point>
	</wsr>
	<wsr>
		<name>KIWA</name>
		<description><![CDATA[SITE: KIWA<BR>LOCATION: PHOENIX<BR>LATITUDE: 33.289<BR>LONGITUDE: -111.67<BR>ELEVATION: 1353<BR><BR>ORDER DATA: <BR><A HREF="http://www.ncdc.noaa.gov/nexradinv/chooseday.jsp?id=KIWA">http://www.ncdc.noaa.gov/nexradinv/chooseday.jsp?id=KIWA</A>]]></description>
		<Point>
			<coordinates>-111.67,33.289,0</coordinates>
		</Point>
	</wsr>
	<wsr>
		<name>KIWX</name>
		<description><![CDATA[SITE: KIWX<BR>LOCATION: FORT WAYNE<BR>LATITUDE: 41.359<BR>LONGITUDE: -85.7<BR>ELEVATION: 960<BR><BR>ORDER DATA: <BR><A HREF="http://www.ncdc.noaa.gov/nexradinv/chooseday.jsp?id=KIWX">http://www.ncdc.noaa.gov/nexradinv/chooseday.jsp?id=KIWX</A>]]></description>
		<Point>
			<coordinates>-85.7,41.359,0</coordinates>
		</Point>
	</wsr>
	<wsr>
		<name>KDGX</name>
		<description><![CDATA[SITE: KDGX<BR>LOCATION: JACKSON/BRAN.<BR>LATITUDE: 32.28<BR>LONGITUDE: -89.984<BR>ELEVATION: 609<BR><BR>ORDER DATA: <BR><A HREF="http://www.ncdc.noaa.gov/nexradinv/chooseday.jsp?id=KDGX">http://www.ncdc.noaa.gov/nexradinv/chooseday.jsp?id=KDGX</A>]]></description>
		<Point>
			<coordinates>-89.98399999999999,32.28,0</coordinates>
		</Point>
	</wsr>
	<wsr>
		<name>KJAX</name>
		<description><![CDATA[SITE: KJAX<BR>LOCATION: JACKSONVILLE<BR>LATITUDE: 30.485<BR>LONGITUDE: -81.702<BR>ELEVATION: 33<BR><BR>ORDER DATA: <BR><A HREF="http://www.ncdc.noaa.gov/nexradinv/chooseday.jsp?id=KJAX">http://www.ncdc.noaa.gov/nexradinv/chooseday.jsp?id=KJAX</A>]]></description>
		<Point>
			<coordinates>-81.702,30.485,0</coordinates>
		</Point>
	</wsr>
	<wsr>
		<name>KJGX</name>
		<description><![CDATA[SITE: KJGX<BR>LOCATION: ROBINS AFB<BR>LATITUDE: 32.675<BR>LONGITUDE: -83.351<BR>ELEVATION: 521<BR><BR>ORDER DATA: <BR><A HREF="http://www.ncdc.noaa.gov/nexradinv/chooseday.jsp?id=KJGX">http://www.ncdc.noaa.gov/nexradinv/chooseday.jsp?id=KJGX</A>]]></description>
		<Point>
			<coordinates>-83.351,32.675,0</coordinates>
		</Point>
	</wsr>
	<wsr>
		<name>KJKL</name>
		<description><![CDATA[SITE: KJKL<BR>LOCATION: JACKSON<BR>LATITUDE: 37.591<BR>LONGITUDE: -83.313<BR>ELEVATION: 1364<BR><BR>ORDER DATA: <BR><A HREF="http://www.ncdc.noaa.gov/nexradinv/chooseday.jsp?id=KJKL">http://www.ncdc.noaa.gov/nexradinv/chooseday.jsp?id=KJKL</A>]]></description>
		<Point>
			<coordinates>-83.313,37.591,0</coordinates>
		</Point>
	</wsr>
	<wsr>
		<name>KLBB</name>
		<description><![CDATA[SITE: KLBB<BR>LOCATION: LUBBOCK<BR>LATITUDE: 33.654<BR>LONGITUDE: -101.814<BR>ELEVATION: 3259<BR><BR>ORDER DATA: <BR><A HREF="http://www.ncdc.noaa.gov/nexradinv/chooseday.jsp?id=KLBB">http://www.ncdc.noaa.gov/nexradinv/chooseday.jsp?id=KLBB</A>]]></description>
		<Point>
			<coordinates>-101.814,33.654,0</coordinates>
		</Point>
	</wsr>
	<wsr>
		<name>KLCH</name>
		<description><![CDATA[SITE: KLCH<BR>LOCATION: LAKE CHARLES<BR>LATITUDE: 30.125<BR>LONGITUDE: -93.216<BR>ELEVATION: 13<BR><BR>ORDER DATA: <BR><A HREF="http://www.ncdc.noaa.gov/nexradinv/chooseday.jsp?id=KLCH">http://www.ncdc.noaa.gov/nexradinv/chooseday.jsp?id=KLCH</A>]]></description>
		<Point>
			<coordinates>-93.21600000000001,30.125,0</coordinates>
		</Point>
	</wsr>
	<wsr>
		<name>KLIX</name>
		<description><![CDATA[SITE: KLIX<BR>LOCATION: NEW ORLEANS<BR>LATITUDE: 30.337<BR>LONGITUDE: -89.826<BR>ELEVATION: 24<BR><BR>ORDER DATA: <BR><A HREF="http://www.ncdc.noaa.gov/nexradinv/chooseday.jsp?id=KLIX">http://www.ncdc.noaa.gov/nexradinv/chooseday.jsp?id=KLIX</A>]]></description>
		<Point>
			<coordinates>-89.82599999999999,30.337,0</coordinates>
		</Point>
	</wsr>
	<wsr>
		<name>KLNX</name>
		<description><![CDATA[SITE: KLNX<BR>LOCATION: NORTH PLATTE<BR>LATITUDE: 41.958<BR>LONGITUDE: -100.576<BR>ELEVATION: 2970<BR><BR>ORDER DATA: <BR><A HREF="http://www.ncdc.noaa.gov/nexradinv/chooseday.jsp?id=KLNX">http://www.ncdc.noaa.gov/nexradinv/chooseday.jsp?id=KLNX</A>]]></description>
		<Point>
			<coordinates>-100.576,41.958,0</coordinates>
		</Point>
	</wsr>
	<wsr>
		<name>KLOT</name>
		<description><![CDATA[SITE: KLOT<BR>LOCATION: CHICAGO<BR>LATITUDE: 41.605<BR>LONGITUDE: -88.085<BR>ELEVATION: 663<BR><BR>ORDER DATA: <BR><A HREF="http://www.ncdc.noaa.gov/nexradinv/chooseday.jsp?id=KLOT">http://www.ncdc.noaa.gov/nexradinv/chooseday.jsp?id=KLOT</A>]]></description>
		<Point>
			<coordinates>-88.08499999999999,41.605,0</coordinates>
		</Point>
	</wsr>
	<wsr>
		<name>KLRX</name>
		<description><![CDATA[SITE: KLRX<BR>LOCATION: ELKO<BR>LATITUDE: 40.74<BR>LONGITUDE: -116.803<BR>ELEVATION: 6744<BR><BR>ORDER DATA: <BR><A HREF="http://www.ncdc.noaa.gov/nexradinv/chooseday.jsp?id=KLRX">http://www.ncdc.noaa.gov/nexradinv/chooseday.jsp?id=KLRX</A>]]></description>
		<Point>
			<coordinates>-116.803,40.74,0</coordinates>
		</Point>
	</wsr>
	<wsr>
		<name>KLSX</name>
		<description><![CDATA[SITE: KLSX<BR>LOCATION: ST LOUIS<BR>LATITUDE: 38.699<BR>LONGITUDE: -90.683<BR>ELEVATION: 608<BR><BR>ORDER DATA: <BR><A HREF="http://www.ncdc.noaa.gov/nexradinv/chooseday.jsp?id=KLSX">http://www.ncdc.noaa.gov/nexradinv/chooseday.jsp?id=KLSX</A>]]></description>
		<Point>
			<coordinates>-90.68300000000002,38.699,0</coordinates>
		</Point>
	</wsr>
	<wsr>
		<name>KLTX</name>
		<description><![CDATA[SITE: KLTX<BR>LOCATION: WILMINGTON<BR>LATITUDE: 33.989<BR>LONGITUDE: -78.429<BR>ELEVATION: 64<BR><BR>ORDER DATA: <BR><A HREF="http://www.ncdc.noaa.gov/nexradinv/chooseday.jsp?id=KLTX">http://www.ncdc.noaa.gov/nexradinv/chooseday.jsp?id=KLTX</A>]]></description>
		<Point>
			<coordinates>-78.429,33.989,0</coordinates>
		</Point>
	</wsr>
	<wsr>
		<name>KLVX</name>
		<description><![CDATA[SITE: KLVX<BR>LOCATION: LOUISVILLE<BR>LATITUDE: 37.975<BR>LONGITUDE: -85.944<BR>ELEVATION: 719<BR><BR>ORDER DATA: <BR><A HREF="http://www.ncdc.noaa.gov/nexradinv/chooseday.jsp?id=KLVX">http://www.ncdc.noaa.gov/nexradinv/chooseday.jsp?id=KLVX</A>]]></description>
		<Point>
			<coordinates>-85.944,37.975,0</coordinates>
		</Point>
	</wsr>
	<wsr>
		<name>KLWX</name>
		<description><![CDATA[SITE: KLWX<BR>LOCATION: STERLING<BR>LATITUDE: 38.975<BR>LONGITUDE: -77.478<BR>ELEVATION: 272<BR><BR>ORDER DATA: <BR><A HREF="http://www.ncdc.noaa.gov/nexradinv/chooseday.jsp?id=KLWX">http://www.ncdc.noaa.gov/nexradinv/chooseday.jsp?id=KLWX</A>]]></description>
		<Point>
			<coordinates>-77.47799999999999,38.975,0</coordinates>
		</Point>
	</wsr>
	<wsr>
		<name>KLZK</name>
		<description><![CDATA[SITE: KLZK<BR>LOCATION: LITTLE ROCK<BR>LATITUDE: 34.836<BR>LONGITUDE: -92.262<BR>ELEVATION: 568<BR><BR>ORDER DATA: <BR><A HREF="http://www.ncdc.noaa.gov/nexradinv/chooseday.jsp?id=KLZK">http://www.ncdc.noaa.gov/nexradinv/chooseday.jsp?id=KLZK</A>]]></description>
		<Point>
			<coordinates>-92.26200000000001,34.836,0</coordinates>
		</Point>
	</wsr>
	<wsr>
		<name>KMAF</name>
		<description><![CDATA[SITE: KMAF<BR>LOCATION: MIDLAND/ODSSA<BR>LATITUDE: 31.943<BR>LONGITUDE: -102.189<BR>ELEVATION: 2868<BR><BR>ORDER DATA: <BR><A HREF="http://www.ncdc.noaa.gov/nexradinv/chooseday.jsp?id=KMAF">http://www.ncdc.noaa.gov/nexradinv/chooseday.jsp?id=KMAF</A>]]></description>
		<Point>
			<coordinates>-102.189,31.943,0</coordinates>
		</Point>
	</wsr>
	<wsr>
		<name>KMAX</name>
		<description><![CDATA[SITE: KMAX<BR>LOCATION: MEDFORD<BR>LATITUDE: 42.081<BR>LONGITUDE: -122.717<BR>ELEVATION: 7513<BR><BR>ORDER DATA: <BR><A HREF="http://www.ncdc.noaa.gov/nexradinv/chooseday.jsp?id=KMAX">http://www.ncdc.noaa.gov/nexradinv/chooseday.jsp?id=KMAX</A>]]></description>
		<Point>
			<coordinates>-122.717,42.08100000000001,0</coordinates>
		</Point>
	</wsr>
	<wsr>
		<name>KMBX</name>
		<description><![CDATA[SITE: KMBX<BR>LOCATION: MINOT AFB<BR>LATITUDE: 48.393<BR>LONGITUDE: -100.865<BR>ELEVATION: 1493<BR><BR>ORDER DATA: <BR><A HREF="http://www.ncdc.noaa.gov/nexradinv/chooseday.jsp?id=KMBX">http://www.ncdc.noaa.gov/nexradinv/chooseday.jsp?id=KMBX</A>]]></description>
		<Point>
			<coordinates>-100.865,48.39300000000001,0</coordinates>
		</Point>
	</wsr>
	<wsr>
		<name>KMHX</name>
		<description><![CDATA[SITE: KMHX<BR>LOCATION: MOREHEAD CITY<BR>LATITUDE: 34.776<BR>LONGITUDE: -76.876<BR>ELEVATION: 31<BR><BR>ORDER DATA: <BR><A HREF="http://www.ncdc.noaa.gov/nexradinv/chooseday.jsp?id=KMHX">http://www.ncdc.noaa.gov/nexradinv/chooseday.jsp?id=KMHX</A>]]></description>
		<Point>
			<coordinates>-76.876,34.77600000000001,0</coordinates>
		</Point>
	</wsr>
	<wsr>
		<name>KMKX</name>
		<description><![CDATA[SITE: KMKX<BR>LOCATION: MILWAUKEE<BR>LATITUDE: 42.968<BR>LONGITUDE: -88.551<BR>ELEVATION: 958<BR><BR>ORDER DATA: <BR><A HREF="http://www.ncdc.noaa.gov/nexradinv/chooseday.jsp?id=KMKX">http://www.ncdc.noaa.gov/nexradinv/chooseday.jsp?id=KMKX</A>]]></description>
		<Point>
			<coordinates>-88.55100000000002,42.96800000000001,0</coordinates>
		</Point>
	</wsr>
	<wsr>
		<name>KMLB</name>
		<description><![CDATA[SITE: KMLB<BR>LOCATION: MELBOURNE<BR>LATITUDE: 28.113<BR>LONGITUDE: -80.654<BR>ELEVATION: 35<BR><BR>ORDER DATA: <BR><A HREF="http://www.ncdc.noaa.gov/nexradinv/chooseday.jsp?id=KMLB">http://www.ncdc.noaa.gov/nexradinv/chooseday.jsp?id=KMLB</A>]]></description>
		<Point>
			<coordinates>-80.654,28.113,0</coordinates>
		</Point>
	</wsr>
	<wsr>
		<name>KMOB</name>
		<description><![CDATA[SITE: KMOB<BR>LOCATION: MOBILE<BR>LATITUDE: 30.679<BR>LONGITUDE: -88.24<BR>ELEVATION: 208<BR><BR>ORDER DATA: <BR><A HREF="http://www.ncdc.noaa.gov/nexradinv/chooseday.jsp?id=KMOB">http://www.ncdc.noaa.gov/nexradinv/chooseday.jsp?id=KMOB</A>]]></description>
		<Point>
			<coordinates>-88.23999999999999,30.679,0</coordinates>
		</Point>
	</wsr>
	<wsr>
		<name>KMPX</name>
		<description><![CDATA[SITE: KMPX<BR>LOCATION: MINNEAPOLIS<BR>LATITUDE: 44.849<BR>LONGITUDE: -93.566<BR>ELEVATION: 946<BR><BR>ORDER DATA: <BR><A HREF="http://www.ncdc.noaa.gov/nexradinv/chooseday.jsp?id=KMPX">http://www.ncdc.noaa.gov/nexradinv/chooseday.jsp?id=KMPX</A>]]></description>
		<Point>
			<coordinates>-93.566,44.849,0</coordinates>
		</Point>
	</wsr>
	<wsr>
		<name>KMQT</name>
		<description><![CDATA[SITE: KMQT<BR>LOCATION: MARQUETTE<BR>LATITUDE: 46.531<BR>LONGITUDE: -87.548<BR>ELEVATION: 1411<BR><BR>ORDER DATA: <BR><A HREF="http://www.ncdc.noaa.gov/nexradinv/chooseday.jsp?id=KMQT">http://www.ncdc.noaa.gov/nexradinv/chooseday.jsp?id=KMQT</A>]]></description>
		<Point>
			<coordinates>-87.548,46.531,0</coordinates>
		</Point>
	</wsr>
	<wsr>
		<name>KMRX</name>
		<description><![CDATA[SITE: KMRX<BR>LOCATION: KNOXVILLE<BR>LATITUDE: 36.169<BR>LONGITUDE: -83.402<BR>ELEVATION: 1337<BR><BR>ORDER DATA: <BR><A HREF="http://www.ncdc.noaa.gov/nexradinv/chooseday.jsp?id=KMRX">http://www.ncdc.noaa.gov/nexradinv/chooseday.jsp?id=KMRX</A>]]></description>
		<Point>
			<coordinates>-83.402,36.169,0</coordinates>
		</Point>
	</wsr>
	<wsr>
		<name>KMSX</name>
		<description><![CDATA[SITE: KMSX<BR>LOCATION: MISSOULA<BR>LATITUDE: 47.041<BR>LONGITUDE: -113.986<BR>ELEVATION: 7855<BR><BR>ORDER DATA: <BR><A HREF="http://www.ncdc.noaa.gov/nexradinv/chooseday.jsp?id=KMSX">http://www.ncdc.noaa.gov/nexradinv/chooseday.jsp?id=KMSX</A>]]></description>
		<Point>
			<coordinates>-113.986,47.041,0</coordinates>
		</Point>
	</wsr>
	<wsr>
		<name>KMTX</name>
		<description><![CDATA[SITE: KMTX<BR>LOCATION: SALT LAKE CTY<BR>LATITUDE: 41.263<BR>LONGITUDE: -112.448<BR>ELEVATION: 0<BR><BR>ORDER DATA: <BR><A HREF="http://www.ncdc.noaa.gov/nexradinv/chooseday.jsp?id=KMTX">http://www.ncdc.noaa.gov/nexradinv/chooseday.jsp?id=KMTX</A>]]></description>
		<Point>
			<coordinates>-112.448,41.263,0</coordinates>
		</Point>
	</wsr>
	<wsr>
		<name>KMUX</name>
		<description><![CDATA[SITE: KMUX<BR>LOCATION: SAN FRANCISCO<BR>LATITUDE: 37.155<BR>LONGITUDE: -121.898<BR>ELEVATION: 3469<BR><BR>ORDER DATA: <BR><A HREF="http://www.ncdc.noaa.gov/nexradinv/chooseday.jsp?id=KMUX">http://www.ncdc.noaa.gov/nexradinv/chooseday.jsp?id=KMUX</A>]]></description>
		<Point>
			<coordinates>-121.898,37.155,0</coordinates>
		</Point>
	</wsr>
	<wsr>
		<name>KMVX</name>
		<description><![CDATA[SITE: KMVX<BR>LOCATION: GRAND FORKS<BR>LATITUDE: 47.528<BR>LONGITUDE: -97.326<BR>ELEVATION: 986<BR><BR>ORDER DATA: <BR><A HREF="http://www.ncdc.noaa.gov/nexradinv/chooseday.jsp?id=KMVX">http://www.ncdc.noaa.gov/nexradinv/chooseday.jsp?id=KMVX</A>]]></description>
		<Point>
			<coordinates>-97.32599999999999,47.52800000000001,0</coordinates>
		</Point>
	</wsr>
	<wsr>
		<name>KMXX</name>
		<description><![CDATA[SITE: KMXX<BR>LOCATION: MAXWELL AFB<BR>LATITUDE: 32.537<BR>LONGITUDE: -85.79<BR>ELEVATION: 400<BR><BR>ORDER DATA: <BR><A HREF="http://www.ncdc.noaa.gov/nexradinv/chooseday.jsp?id=KMXX">http://www.ncdc.noaa.gov/nexradinv/chooseday.jsp?id=KMXX</A>]]></description>
		<Point>
			<coordinates>-85.79000000000001,32.537,0</coordinates>
		</Point>
	</wsr>
	<wsr>
		<name>KNKX</name>
		<description><![CDATA[SITE: KNKX<BR>LOCATION: SAN DIEGO<BR>LATITUDE: 32.919<BR>LONGITUDE: -117.042<BR>ELEVATION: 955<BR><BR>ORDER DATA: <BR><A HREF="http://www.ncdc.noaa.gov/nexradinv/chooseday.jsp?id=KNKX">http://www.ncdc.noaa.gov/nexradinv/chooseday.jsp?id=KNKX</A>]]></description>
		<Point>
			<coordinates>-117.042,32.919,0</coordinates>
		</Point>
	</wsr>
	<wsr>
		<name>KNQA</name>
		<description><![CDATA[SITE: KNQA<BR>LOCATION: MEMPHIS<BR>LATITUDE: 35.345<BR>LONGITUDE: -89.873<BR>ELEVATION: 282<BR><BR>ORDER DATA: <BR><A HREF="http://www.ncdc.noaa.gov/nexradinv/chooseday.jsp?id=KNQA">http://www.ncdc.noaa.gov/nexradinv/chooseday.jsp?id=KNQA</A>]]></description>
		<Point>
			<coordinates>-89.873,35.34500000000001,0</coordinates>
		</Point>
	</wsr>
	<wsr>
		<name>KOAX</name>
		<description><![CDATA[SITE: KOAX<BR>LOCATION: OMAHA<BR>LATITUDE: 41.32<BR>LONGITUDE: -96.367<BR>ELEVATION: 1148<BR><BR>ORDER DATA: <BR><A HREF="http://www.ncdc.noaa.gov/nexradinv/chooseday.jsp?id=KOAX">http://www.ncdc.noaa.gov/nexradinv/chooseday.jsp?id=KOAX</A>]]></description>
		<Point>
			<coordinates>-96.367,41.32,0</coordinates>
		</Point>
	</wsr>
	<wsr>
		<name>KOHX</name>
		<description><![CDATA[SITE: KOHX<BR>LOCATION: NASHVILLE<BR>LATITUDE: 36.247<BR>LONGITUDE: -86.563<BR>ELEVATION: 579<BR><BR>ORDER DATA: <BR><A HREF="http://www.ncdc.noaa.gov/nexradinv/chooseday.jsp?id=KOHX">http://www.ncdc.noaa.gov/nexradinv/chooseday.jsp?id=KOHX</A>]]></description>
		<Point>
			<coordinates>-86.563,36.247,0</coordinates>
		</Point>
	</wsr>
	<wsr>
		<name>KOKX</name>
		<description><![CDATA[SITE: KOKX<BR>LOCATION: NEW YORK CITY<BR>LATITUDE: 40.866<BR>LONGITUDE: -72.864<BR>ELEVATION: 85<BR><BR>ORDER DATA: <BR><A HREF="http://www.ncdc.noaa.gov/nexradinv/chooseday.jsp?id=KOKX">http://www.ncdc.noaa.gov/nexradinv/chooseday.jsp?id=KOKX</A>]]></description>
		<Point>
			<coordinates>-72.864,40.866,0</coordinates>
		</Point>
	</wsr>
	<wsr>
		<name>KOTX</name>
		<description><![CDATA[SITE: KOTX<BR>LOCATION: SPOKANE<BR>LATITUDE: 47.68<BR>LONGITUDE: -117.627<BR>ELEVATION: 2384<BR><BR>ORDER DATA: <BR><A HREF="http://www.ncdc.noaa.gov/nexradinv/chooseday.jsp?id=KOTX">http://www.ncdc.noaa.gov/nexradinv/chooseday.jsp?id=KOTX</A>]]></description>
		<Point>
			<coordinates>-117.627,47.68,0</coordinates>
		</Point>
	</wsr>
	<wsr>
		<name>KPAH</name>
		<description><![CDATA[SITE: KPAH<BR>LOCATION: PADUCAH<BR>LATITUDE: 37.068<BR>LONGITUDE: -88.772<BR>ELEVATION: 392<BR><BR>ORDER DATA: <BR><A HREF="http://www.ncdc.noaa.gov/nexradinv/chooseday.jsp?id=KPAH">http://www.ncdc.noaa.gov/nexradinv/chooseday.jsp?id=KPAH</A>]]></description>
		<Point>
			<coordinates>-88.77200000000001,37.068,0</coordinates>
		</Point>
	</wsr>
	<wsr>
		<name>KPBZ</name>
		<description><![CDATA[SITE: KPBZ<BR>LOCATION: PITTSBURGH<BR>LATITUDE: 40.532<BR>LONGITUDE: -80.218<BR>ELEVATION: 1185<BR><BR>ORDER DATA: <BR><A HREF="http://www.ncdc.noaa.gov/nexradinv/chooseday.jsp?id=KPBZ">http://www.ncdc.noaa.gov/nexradinv/chooseday.jsp?id=KPBZ</A>]]></description>
		<Point>
			<coordinates>-80.218,40.532,0</coordinates>
		</Point>
	</wsr>
	<wsr>
		<name>KPDT</name>
		<description><![CDATA[SITE: KPDT<BR>LOCATION: PENDLETON<BR>LATITUDE: 45.691<BR>LONGITUDE: -118.853<BR>ELEVATION: 1515<BR><BR>ORDER DATA: <BR><A HREF="http://www.ncdc.noaa.gov/nexradinv/chooseday.jsp?id=KPDT">http://www.ncdc.noaa.gov/nexradinv/chooseday.jsp?id=KPDT</A>]]></description>
		<Point>
			<coordinates>-118.853,45.691,0</coordinates>
		</Point>
	</wsr>
	<wsr>
		<name>KPOE</name>
		<description><![CDATA[SITE: KPOE<BR>LOCATION: FORT POLK<BR>LATITUDE: 31.156<BR>LONGITUDE: -92.976<BR>ELEVATION: 408<BR><BR>ORDER DATA: <BR><A HREF="http://www.ncdc.noaa.gov/nexradinv/chooseday.jsp?id=KPOE">http://www.ncdc.noaa.gov/nexradinv/chooseday.jsp?id=KPOE</A>]]></description>
		<Point>
			<coordinates>-92.97600000000001,31.156,0</coordinates>
		</Point>
	</wsr>
	<wsr>
		<name>KPUX</name>
		<description><![CDATA[SITE: KPUX<BR>LOCATION: PUEBLO<BR>LATITUDE: 38.459<BR>LONGITUDE: -104.181<BR>ELEVATION: 5249<BR><BR>ORDER DATA: <BR><A HREF="http://www.ncdc.noaa.gov/nexradinv/chooseday.jsp?id=KPUX">http://www.ncdc.noaa.gov/nexradinv/chooseday.jsp?id=KPUX</A>]]></description>
		<Point>
			<coordinates>-104.181,38.459,0</coordinates>
		</Point>
	</wsr>
	<wsr>
		<name>KRAX</name>
		<description><![CDATA[SITE: KRAX<BR>LOCATION: RALEIGH/DUR<BR>LATITUDE: 35.666<BR>LONGITUDE: -78.49<BR>ELEVATION: 348<BR><BR>ORDER DATA: <BR><A HREF="http://www.ncdc.noaa.gov/nexradinv/chooseday.jsp?id=KRAX">http://www.ncdc.noaa.gov/nexradinv/chooseday.jsp?id=KRAX</A>]]></description>
		<Point>
			<coordinates>-78.48999999999999,35.666,0</coordinates>
		</Point>
	</wsr>
	<wsr>
		<name>KRGX</name>
		<description><![CDATA[SITE: KRGX<BR>LOCATION: RENO<BR>LATITUDE: 39.754<BR>LONGITUDE: -119.462<BR>ELEVATION: 8299<BR><BR>ORDER DATA: <BR><A HREF="http://www.ncdc.noaa.gov/nexradinv/chooseday.jsp?id=KRGX">http://www.ncdc.noaa.gov/nexradinv/chooseday.jsp?id=KRGX</A>]]></description>
		<Point>
			<coordinates>-119.462,39.754,0</coordinates>
		</Point>
	</wsr>
	<wsr>
		<name>KRIW</name>
		<description><![CDATA[SITE: KRIW<BR>LOCATION: RIVERTON<BR>LATITUDE: 43.066<BR>LONGITUDE: -108.477<BR>ELEVATION: 5568<BR><BR>ORDER DATA: <BR><A HREF="http://www.ncdc.noaa.gov/nexradinv/chooseday.jsp?id=KRIW">http://www.ncdc.noaa.gov/nexradinv/chooseday.jsp?id=KRIW</A>]]></description>
		<Point>
			<coordinates>-108.477,43.066,0</coordinates>
		</Point>
	</wsr>
	<wsr>
		<name>KRLX</name>
		<description><![CDATA[SITE: KRLX<BR>LOCATION: CHARLESTON<BR>LATITUDE: 38.311<BR>LONGITUDE: -81.723<BR>ELEVATION: 1080<BR><BR>ORDER DATA: <BR><A HREF="http://www.ncdc.noaa.gov/nexradinv/chooseday.jsp?id=KRLX">http://www.ncdc.noaa.gov/nexradinv/chooseday.jsp?id=KRLX</A>]]></description>
		<Point>
			<coordinates>-81.723,38.311,0</coordinates>
		</Point>
	</wsr>
	<wsr>
		<name>KRMX</name>
		<description><![CDATA[SITE: KRMX<BR>LOCATION: GRIFFISS AFB<BR>LATITUDE: 43.468<BR>LONGITUDE: -75.458<BR>ELEVATION: 1516<BR><BR>ORDER DATA: <BR><A HREF="http://www.ncdc.noaa.gov/nexradinv/chooseday.jsp?id=KRMX">http://www.ncdc.noaa.gov/nexradinv/chooseday.jsp?id=KRMX</A>]]></description>
		<Point>
			<coordinates>-75.45800000000001,43.468,0</coordinates>
		</Point>
	</wsr>
	<wsr>
		<name>KRTX</name>
		<description><![CDATA[SITE: KRTX<BR>LOCATION: PORTLAND<BR>LATITUDE: 45.715<BR>LONGITUDE: -122.965<BR>ELEVATION: 1572<BR><BR>ORDER DATA: <BR><A HREF="http://www.ncdc.noaa.gov/nexradinv/chooseday.jsp?id=KRTX">http://www.ncdc.noaa.gov/nexradinv/chooseday.jsp?id=KRTX</A>]]></description>
		<Point>
			<coordinates>-122.965,45.71500000000001,0</coordinates>
		</Point>
	</wsr>
	<wsr>
		<name>KSFX</name>
		<description><![CDATA[SITE: KSFX<BR>LOCATION: POCATELLO<BR>LATITUDE: 43.106<BR>LONGITUDE: -112.686<BR>ELEVATION: 4474<BR><BR>ORDER DATA: <BR><A HREF="http://www.ncdc.noaa.gov/nexradinv/chooseday.jsp?id=KSFX">http://www.ncdc.noaa.gov/nexradinv/chooseday.jsp?id=KSFX</A>]]></description>
		<Point>
			<coordinates>-112.686,43.106,0</coordinates>
		</Point>
	</wsr>
	<wsr>
		<name>KSGF</name>
		<description><![CDATA[SITE: KSGF<BR>LOCATION: SPRINGFIELD<BR>LATITUDE: 37.235<BR>LONGITUDE: -93.401<BR>ELEVATION: 1278<BR><BR>ORDER DATA: <BR><A HREF="http://www.ncdc.noaa.gov/nexradinv/chooseday.jsp?id=KSGF">http://www.ncdc.noaa.gov/nexradinv/chooseday.jsp?id=KSGF</A>]]></description>
		<Point>
			<coordinates>-93.401,37.235,0</coordinates>
		</Point>
	</wsr>
	<wsr>
		<name>KSHV</name>
		<description><![CDATA[SITE: KSHV<BR>LOCATION: SHREVEPORT<BR>LATITUDE: 32.451<BR>LONGITUDE: -93.841<BR>ELEVATION: 273<BR><BR>ORDER DATA: <BR><A HREF="http://www.ncdc.noaa.gov/nexradinv/chooseday.jsp?id=KSHV">http://www.ncdc.noaa.gov/nexradinv/chooseday.jsp?id=KSHV</A>]]></description>
		<Point>
			<coordinates>-93.84100000000001,32.451,0</coordinates>
		</Point>
	</wsr>
	<wsr>
		<name>KSJT</name>
		<description><![CDATA[SITE: KSJT<BR>LOCATION: SAN ANGELO<BR>LATITUDE: 31.371<BR>LONGITUDE: -100.493<BR>ELEVATION: 1890<BR><BR>ORDER DATA: <BR><A HREF="http://www.ncdc.noaa.gov/nexradinv/chooseday.jsp?id=KSJT">http://www.ncdc.noaa.gov/nexradinv/chooseday.jsp?id=KSJT</A>]]></description>
		<Point>
			<coordinates>-100.493,31.371,0</coordinates>
		</Point>
	</wsr>
	<wsr>
		<name>KSOX</name>
		<description><![CDATA[SITE: KSOX<BR>LOCATION: SANTA ANA MT<BR>LATITUDE: 33.818<BR>LONGITUDE: -117.636<BR>ELEVATION: 3027<BR><BR>ORDER DATA: <BR><A HREF="http://www.ncdc.noaa.gov/nexradinv/chooseday.jsp?id=KSOX">http://www.ncdc.noaa.gov/nexradinv/chooseday.jsp?id=KSOX</A>]]></description>
		<Point>
			<coordinates>-117.636,33.818,0</coordinates>
		</Point>
	</wsr>
	<wsr>
		<name>KSRX</name>
		<description><![CDATA[SITE: KSRX<BR>LOCATION: FORT SMITH<BR>LATITUDE: 35.291<BR>LONGITUDE: -94.362<BR>ELEVATION: 640<BR><BR>ORDER DATA: <BR><A HREF="http://www.ncdc.noaa.gov/nexradinv/chooseday.jsp?id=KSRX">http://www.ncdc.noaa.gov/nexradinv/chooseday.jsp?id=KSRX</A>]]></description>
		<Point>
			<coordinates>-94.36199999999999,35.291,0</coordinates>
		</Point>
	</wsr>
	<wsr>
		<name>KTBW</name>
		<description><![CDATA[SITE: KTBW<BR>LOCATION: TAMPA<BR>LATITUDE: 27.706<BR>LONGITUDE: -82.402<BR>ELEVATION: 41<BR><BR>ORDER DATA: <BR><A HREF="http://www.ncdc.noaa.gov/nexradinv/chooseday.jsp?id=KTBW">http://www.ncdc.noaa.gov/nexradinv/chooseday.jsp?id=KTBW</A>]]></description>
		<Point>
			<coordinates>-82.402,27.706,0</coordinates>
		</Point>
	</wsr>
	<wsr>
		<name>KTFX</name>
		<description><![CDATA[SITE: KTFX<BR>LOCATION: GREAT FALLS<BR>LATITUDE: 47.46<BR>LONGITUDE: -111.385<BR>ELEVATION: 3714<BR><BR>ORDER DATA: <BR><A HREF="http://www.ncdc.noaa.gov/nexradinv/chooseday.jsp?id=KTFX">http://www.ncdc.noaa.gov/nexradinv/chooseday.jsp?id=KTFX</A>]]></description>
		<Point>
			<coordinates>-111.385,47.46,0</coordinates>
		</Point>
	</wsr>
	<wsr>
		<name>KTLH</name>
		<description><![CDATA[SITE: KTLH<BR>LOCATION: TALLAHASSEE<BR>LATITUDE: 30.398<BR>LONGITUDE: -84.329<BR>ELEVATION: 63<BR><BR>ORDER DATA: <BR><A HREF="http://www.ncdc.noaa.gov/nexradinv/chooseday.jsp?id=KTLH">http://www.ncdc.noaa.gov/nexradinv/chooseday.jsp?id=KTLH</A>]]></description>
		<Point>
			<coordinates>-84.32899999999999,30.398,0</coordinates>
		</Point>
	</wsr>
	<wsr>
		<name>KTLX</name>
		<description><![CDATA[SITE: KTLX<BR>LOCATION: OKLAHOMA CITY<BR>LATITUDE: 35.333<BR>LONGITUDE: -97.278<BR>ELEVATION: 1213<BR><BR>ORDER DATA: <BR><A HREF="http://www.ncdc.noaa.gov/nexradinv/chooseday.jsp?id=KTLX">http://www.ncdc.noaa.gov/nexradinv/chooseday.jsp?id=KTLX</A>]]></description>
		<Point>
			<coordinates>-97.27800000000002,35.333,0</coordinates>
		</Point>
	</wsr>
	<wsr>
		<name>KTWX</name>
		<description><![CDATA[SITE: KTWX<BR>LOCATION: TOPEKA<BR>LATITUDE: 38.997<BR>LONGITUDE: -96.233<BR>ELEVATION: 1367<BR><BR>ORDER DATA: <BR><A HREF="http://www.ncdc.noaa.gov/nexradinv/chooseday.jsp?id=KTWX">http://www.ncdc.noaa.gov/nexradinv/chooseday.jsp?id=KTWX</A>]]></description>
		<Point>
			<coordinates>-96.233,38.997,0</coordinates>
		</Point>
	</wsr>
	<wsr>
		<name>KTYX</name>
		<description><![CDATA[SITE: KTYX<BR>LOCATION: FORT DRUM<BR>LATITUDE: 43.756<BR>LONGITUDE: -75.68<BR>ELEVATION: 1846<BR><BR>ORDER DATA: <BR><A HREF="http://www.ncdc.noaa.gov/nexradinv/chooseday.jsp?id=KTYX">http://www.ncdc.noaa.gov/nexradinv/chooseday.jsp?id=KTYX</A>]]></description>
		<Point>
			<coordinates>-75.68000000000001,43.756,0</coordinates>
		</Point>
	</wsr>
	<wsr>
		<name>KUDX</name>
		<description><![CDATA[SITE: KUDX<BR>LOCATION: RAPID CITY<BR>LATITUDE: 44.125<BR>LONGITUDE: -102.83<BR>ELEVATION: 3016<BR><BR>ORDER DATA: <BR><A HREF="http://www.ncdc.noaa.gov/nexradinv/chooseday.jsp?id=KUDX">http://www.ncdc.noaa.gov/nexradinv/chooseday.jsp?id=KUDX</A>]]></description>
		<Point>
			<coordinates>-102.83,44.125,0</coordinates>
		</Point>
	</wsr>
	<wsr>
		<name>KUEX</name>
		<description><![CDATA[SITE: KUEX<BR>LOCATION: HASTINGS<BR>LATITUDE: 40.321<BR>LONGITUDE: -98.442<BR>ELEVATION: 1976<BR><BR>ORDER DATA: <BR><A HREF="http://www.ncdc.noaa.gov/nexradinv/chooseday.jsp?id=KUEX">http://www.ncdc.noaa.gov/nexradinv/chooseday.jsp?id=KUEX</A>]]></description>
		<Point>
			<coordinates>-98.44199999999999,40.321,0</coordinates>
		</Point>
	</wsr>
	<wsr>
		<name>KVAX</name>
		<description><![CDATA[SITE: KVAX<BR>LOCATION: MOODY AFB<BR>LATITUDE: 30.89<BR>LONGITUDE: -83.002<BR>ELEVATION: 178<BR><BR>ORDER DATA: <BR><A HREF="http://www.ncdc.noaa.gov/nexradinv/chooseday.jsp?id=KVAX">http://www.ncdc.noaa.gov/nexradinv/chooseday.jsp?id=KVAX</A>]]></description>
		<Point>
			<coordinates>-83.002,30.89,0</coordinates>
		</Point>
	</wsr>
	<wsr>
		<name>KVBX</name>
		<description><![CDATA[SITE: KVBX<BR>LOCATION: VANDENBRG AFB<BR>LATITUDE: 34.838<BR>LONGITUDE: -120.397<BR>ELEVATION: 1233<BR><BR>ORDER DATA: <BR><A HREF="http://www.ncdc.noaa.gov/nexradinv/chooseday.jsp?id=KVBX">http://www.ncdc.noaa.gov/nexradinv/chooseday.jsp?id=KVBX</A>]]></description>
		<Point>
			<coordinates>-120.397,34.838,0</coordinates>
		</Point>
	</wsr>
	<wsr>
		<name>KVNX</name>
		<description><![CDATA[SITE: KVNX<BR>LOCATION: VANCE AFB<BR>LATITUDE: 36.741<BR>LONGITUDE: -98.128<BR>ELEVATION: 1210<BR><BR>ORDER DATA: <BR><A HREF="http://www.ncdc.noaa.gov/nexradinv/chooseday.jsp?id=KVNX">http://www.ncdc.noaa.gov/nexradinv/chooseday.jsp?id=KVNX</A>]]></description>
		<Point>
			<coordinates>-98.12800000000001,36.741,0</coordinates>
		</Point>
	</wsr>
	<wsr>
		<name>KVTX</name>
		<description><![CDATA[SITE: KVTX<BR>LOCATION: LOS ANGELES<BR>LATITUDE: 34.412<BR>LONGITUDE: -119.179<BR>ELEVATION: 2726<BR><BR>ORDER DATA: <BR><A HREF="http://www.ncdc.noaa.gov/nexradinv/chooseday.jsp?id=KVTX">http://www.ncdc.noaa.gov/nexradinv/chooseday.jsp?id=KVTX</A>]]></description>
		<Point>
			<coordinates>-119.179,34.412,0</coordinates>
		</Point>
	</wsr>
	<wsr>
		<name>KVWX</name>
		<description><![CDATA[SITE: KVWX<BR>LOCATION: EVANSVILLE<BR>LATITUDE: 38.2666<BR>LONGITUDE: -87.7166<BR>ELEVATION: 392<BR><BR>ORDER DATA: <BR><A HREF="http://www.ncdc.noaa.gov/nexradinv/chooseday.jsp?id=KVWX">http://www.ncdc.noaa.gov/nexradinv/chooseday.jsp?id=KVWX</A>]]></description>
		<Point>
			<coordinates>-87.7166,38.2666,0</coordinates>
		</Point>
	</wsr>
	<wsr>
		<name>KYUX</name>
		<description><![CDATA[SITE: KYUX<BR>LOCATION: YUMA<BR>LATITUDE: 32.495<BR>LONGITUDE: -114.657<BR>ELEVATION: 174<BR><BR>ORDER DATA: <BR><A HREF="http://www.ncdc.noaa.gov/nexradinv/chooseday.jsp?id=KYUX">http://www.ncdc.noaa.gov/nexradinv/chooseday.jsp?id=KYUX</A>]]></description>
		<Point>
			<coordinates>-114.657,32.495,0</coordinates>
		</Point>
	</wsr>
	<wsr>
		<name>LPLA</name>
		<description><![CDATA[SITE: LPLA<BR>LOCATION: LAJES AB<BR>LATITUDE: 38.73<BR>LONGITUDE: -27.322<BR>ELEVATION: 3334<BR><BR>ORDER DATA: <BR><A HREF="http://www.ncdc.noaa.gov/nexradinv/chooseday.jsp?id=LPLA">http://www.ncdc.noaa.gov/nexradinv/chooseday.jsp?id=LPLA</A>]]></description>
		<Point>
			<coordinates>-27.322,38.73,0</coordinates>
		</Point>
	</wsr>
	<wsr>
		<name>PABC</name>
		<description><![CDATA[SITE: PABC<BR>LOCATION: BETHEL<BR>LATITUDE: 60.792<BR>LONGITUDE: -161.876<BR>ELEVATION: 162<BR><BR>ORDER DATA: <BR><A HREF="http://www.ncdc.noaa.gov/nexradinv/chooseday.jsp?id=PABC">http://www.ncdc.noaa.gov/nexradinv/chooseday.jsp?id=PABC</A>]]></description>
		<Point>
			<coordinates>-161.876,60.792,0</coordinates>
		</Point>
	</wsr>
	<wsr>
		<name>PACG</name>
		<description><![CDATA[SITE: PACG<BR>LOCATION: SITKA<BR>LATITUDE: 56.853<BR>LONGITUDE: -135.529<BR>ELEVATION: 270<BR><BR>ORDER DATA: <BR><A HREF="http://www.ncdc.noaa.gov/nexradinv/chooseday.jsp?id=PACG">http://www.ncdc.noaa.gov/nexradinv/chooseday.jsp?id=PACG</A>]]></description>
		<Point>
			<coordinates>-135.529,56.853,0</coordinates>
		</Point>
	</wsr>
	<wsr>
		<name>PAEC</name>
		<description><![CDATA[SITE: PAEC<BR>LOCATION: NOME<BR>LATITUDE: 64.511<BR>LONGITUDE: -165.295<BR>ELEVATION: 54<BR><BR>ORDER DATA: <BR><A HREF="http://www.ncdc.noaa.gov/nexradinv/chooseday.jsp?id=PAEC">http://www.ncdc.noaa.gov/nexradinv/chooseday.jsp?id=PAEC</A>]]></description>
		<Point>
			<coordinates>-165.295,64.511,0</coordinates>
		</Point>
	</wsr>
	<wsr>
		<name>PAHG</name>
		<description><![CDATA[SITE: PAHG<BR>LOCATION: ANCHORAGE<BR>LATITUDE: 60.726<BR>LONGITUDE: -151.351<BR>ELEVATION: 242<BR><BR>ORDER DATA: <BR><A HREF="http://www.ncdc.noaa.gov/nexradinv/chooseday.jsp?id=PAHG">http://www.ncdc.noaa.gov/nexradinv/chooseday.jsp?id=PAHG</A>]]></description>
		<Point>
			<coordinates>-151.351,60.726,0</coordinates>
		</Point>
	</wsr>
	<wsr>
		<name>PAIH</name>
		<description><![CDATA[SITE: PAIH<BR>LOCATION: MIDDLETON IS<BR>LATITUDE: 59.461<BR>LONGITUDE: -146.303<BR>ELEVATION: 67<BR><BR>ORDER DATA: <BR><A HREF="http://www.ncdc.noaa.gov/nexradinv/chooseday.jsp?id=PAIH">http://www.ncdc.noaa.gov/nexradinv/chooseday.jsp?id=PAIH</A>]]></description>
		<Point>
			<coordinates>-146.303,59.46100000000001,0</coordinates>
		</Point>
	</wsr>
	<wsr>
		<name>PAKC</name>
		<description><![CDATA[SITE: PAKC<BR>LOCATION: KING SALMON<BR>LATITUDE: 58.679<BR>LONGITUDE: -156.629<BR>ELEVATION: 63<BR><BR>ORDER DATA: <BR><A HREF="http://www.ncdc.noaa.gov/nexradinv/chooseday.jsp?id=PAKC">http://www.ncdc.noaa.gov/nexradinv/chooseday.jsp?id=PAKC</A>]]></description>
		<Point>
			<coordinates>-156.629,58.679,0</coordinates>
		</Point>
	</wsr>
	<wsr>
		<name>PAPD</name>
		<description><![CDATA[SITE: PAPD<BR>LOCATION: FAIRBANKS<BR>LATITUDE: 65.035<BR>LONGITUDE: -147.502<BR>ELEVATION: 2593<BR><BR>ORDER DATA: <BR><A HREF="http://www.ncdc.noaa.gov/nexradinv/chooseday.jsp?id=PAPD">http://www.ncdc.noaa.gov/nexradinv/chooseday.jsp?id=PAPD</A>]]></description>
		<Point>
			<coordinates>-147.502,65.035,0</coordinates>
		</Point>
	</wsr>
	<wsr>
		<name>PGUA</name>
		<description><![CDATA[SITE: PGUA<BR>LOCATION: ANDERSEN AFB<BR>LATITUDE: 13.454<BR>LONGITUDE: 144.808<BR>ELEVATION: 264<BR><BR>ORDER DATA: <BR><A HREF="http://www.ncdc.noaa.gov/nexradinv/chooseday.jsp?id=PGUA">http://www.ncdc.noaa.gov/nexradinv/chooseday.jsp?id=PGUA</A>]]></description>
		<Point>
			<coordinates>144.808,13.454,0</coordinates>
		</Point>
	</wsr>
	<wsr>
		<name>PHKI</name>
		<description><![CDATA[SITE: PHKI<BR>LOCATION: SOUTH KAUAI<BR>LATITUDE: 21.894<BR>LONGITUDE: -159.552<BR>ELEVATION: 179<BR><BR>ORDER DATA: <BR><A HREF="http://www.ncdc.noaa.gov/nexradinv/chooseday.jsp?id=PHKI">http://www.ncdc.noaa.gov/nexradinv/chooseday.jsp?id=PHKI</A>]]></description>
		<Point>
			<coordinates>-159.552,21.894,0</coordinates>
		</Point>
	</wsr>
	<wsr>
		<name>PHKM</name>
		<description><![CDATA[SITE: PHKM<BR>LOCATION: KAMUELA<BR>LATITUDE: 20.126<BR>LONGITUDE: -155.778<BR>ELEVATION: 3812<BR><BR>ORDER DATA: <BR><A HREF="http://www.ncdc.noaa.gov/nexradinv/chooseday.jsp?id=PHKM">http://www.ncdc.noaa.gov/nexradinv/chooseday.jsp?id=PHKM</A>]]></description>
		<Point>
			<coordinates>-155.778,20.126,0</coordinates>
		</Point>
	</wsr>
	<wsr>
		<name>PHMO</name>
		<description><![CDATA[SITE: PHMO<BR>LOCATION: MOLOKAI<BR>LATITUDE: 21.133<BR>LONGITUDE: -157.18<BR>ELEVATION: 1363<BR><BR>ORDER DATA: <BR><A HREF="http://www.ncdc.noaa.gov/nexradinv/chooseday.jsp?id=PHMO">http://www.ncdc.noaa.gov/nexradinv/chooseday.jsp?id=PHMO</A>]]></description>
		<Point>
			<coordinates>-157.18,21.133,0</coordinates>
		</Point>
	</wsr>
	<wsr>
		<name>PHWA</name>
		<description><![CDATA[SITE: PHWA<BR>LOCATION: SOUTH SHORE<BR>LATITUDE: 19.095<BR>LONGITUDE: -155.569<BR>ELEVATION: 1370<BR><BR>ORDER DATA: <BR><A HREF="http://www.ncdc.noaa.gov/nexradinv/chooseday.jsp?id=PHWA">http://www.ncdc.noaa.gov/nexradinv/chooseday.jsp?id=PHWA</A>]]></description>
		<Point>
			<coordinates>-155.569,19.095,0</coordinates>
		</Point>
	</wsr>
	<wsr>
		<name>RKJK</name>
		<description><![CDATA[SITE: RKJK<BR>LOCATION: KUNSAN<BR>LATITUDE: 35.924<BR>LONGITUDE: 126.622<BR>ELEVATION: 78<BR><BR>ORDER DATA: <BR><A HREF="http://www.ncdc.noaa.gov/nexradinv/chooseday.jsp?id=RKJK">http://www.ncdc.noaa.gov/nexradinv/chooseday.jsp?id=RKJK</A>]]></description>
		<Point>
			<coordinates>126.622,35.924,0</coordinates>
		</Point>
	</wsr>
	<wsr>
		<name>RKSG</name>
		<description><![CDATA[SITE: RKSG<BR>LOCATION: CMP HUMPHRYS<BR>LATITUDE: 36.956<BR>LONGITUDE: 127.021<BR>ELEVATION: 52<BR><BR>ORDER DATA: <BR><A HREF="http://www.ncdc.noaa.gov/nexradinv/chooseday.jsp?id=RKSG">http://www.ncdc.noaa.gov/nexradinv/chooseday.jsp?id=RKSG</A>]]></description>
		<Point>
			<coordinates>127.021,36.956,0</coordinates>
		</Point>
	</wsr>
	<wsr>
		<name>RODN</name>
		<description><![CDATA[SITE: RODN<BR>LOCATION: KADENA<BR>LATITUDE: 26.302<BR>LONGITUDE: 127.91<BR>ELEVATION: 218<BR><BR>ORDER DATA: <BR><A HREF="http://www.ncdc.noaa.gov/nexradinv/chooseday.jsp?id=RODN">http://www.ncdc.noaa.gov/nexradinv/chooseday.jsp?id=RODN</A>]]></description>
		<Point>
			<coordinates>127.91,26.302,0</coordinates>
		</Point>
	</wsr>
	<wsr>
		<name>TJUA</name>
		<description><![CDATA[SITE: TJUA<BR>LOCATION: SAN JUAN<BR>LATITUDE: 18.116<BR>LONGITUDE: -66.078<BR>ELEVATION: 2794<BR><BR>ORDER DATA: <BR><A HREF="http://www.ncdc.noaa.gov/nexradinv/chooseday.jsp?id=TJUA">http://www.ncdc.noaa.gov/nexradinv/chooseday.jsp?id=TJUA</A>]]></description>
		<Point>
			<coordinates>-66.078,18.116,0</coordinates>
		</Point>
	</wsr>
	<wsr>
		<name>KJAN</name>
		<description><![CDATA[SITE: KJAN<BR>LOCATION: JACKSON<BR>LATITUDE: 32.318<BR>LONGITUDE: -90.08<BR>ELEVATION: 297<BR><BR>ORDER DATA: <BR><A HREF="http://www.ncdc.noaa.gov/nexradinv/chooseday.jsp?id=KJAN">http://www.ncdc.noaa.gov/nexradinv/chooseday.jsp?id=KJAN</A>]]></description>
		<Point>
			<coordinates>-90.08,32.318,0</coordinates>
		</Point>
	</wsr>
</Document>
</kml>
